name,lat,lon,gmu,type,elevation
Flattop Mountain,40.308939,-105.690209,20,peak,3757
Peak 8,39.4727092,-106.102479,37,peak,3955
Island Mesa,38.1041584,-109.0001071,70,peak,2132
Hardesty Mesa,37.0036329,-103.6643982,143,peak,1896
Cobert Mesa,37.0089093,-103.5296691,143,peak,1837
Jesus Mesa,37.0750197,-103.5032785,143,peak,1882
Hardesty Mesa,36.9994662,-103.6616203,143,peak,1881
Rock Creek Mesa,36.9966787,-106.7530917,78,peak,2475
State Line Peak,36.9955791,-105.2963944,Unknown,peak,3918
Barela Mesa,36.9997455,-104.3138714,140,peak,2611
Wulsten Baldy,38.2513874,-105.7380624,86,peak,3870
McKinley Mountain,38.2525006,-105.2891612,69,peak,2564
Bull Mountain,40.9174782,-105.8347255,8,peak,3074
Aigner Mountain,40.6749717,-107.2631142,441,peak,2225
Hooker Mountain,40.5660844,-107.1872792,441,peak,2359
Yahoo Mountain,40.9438556,-107.2683917,5,peak,2522
Bible Back Mountain,40.9457998,-107.3550606,5,peak,2571
Camel Back Mountain,40.9460776,-107.3408937,5,peak,2544
Long Mountain,40.9244114,-107.3217265,5,peak,2828
Buck Knoll,40.9746816,-109.0262314,201,peak,2745
Kleins Hill,40.9869038,-109.0262314,201,peak,2755
Middle Mountain,40.9605156,-108.9453953,201,peak,2494
Diamond Peak,40.9502385,-108.8781712,201,peak,2946
Bishop Peak,40.9630158,-108.9253948,201,peak,2691
Cold Spring Mountain,40.895239,-108.8715043,201,peak,2624
Sugarloaf Butte,40.90774,-108.742056,2,peak,2178
Bighole Butte,40.8896883,-107.9556355,3,peak,2063
Bakers Peak,40.9180223,-107.4564523,4,peak,2879
Serviceberry Mountain,40.9449661,-107.4889531,4,peak,2428
Smith Rim,40.9124668,-107.4353406,4,peak,2732
Blue Hill,40.8482963,-108.717055,2,peak,2105
Lookout Mountain,40.8641313,-108.4837139,2,peak,2466
Twin Buttes,40.7557994,-108.3881536,2,peak,1909
The Nipple,40.8549657,-108.2087021,2,peak,2223
Brush Mountain,40.8769126,-107.2497803,5,peak,2969
Middle Mountain,40.8819126,-107.2178349,5,peak,2752
East Gibraltar Peak,40.9016345,-107.2089458,5,peak,2640
Tumble Mountain,40.9105235,-107.1492219,5,peak,2655
West Gibraltar Peak,40.9266339,-107.2481134,5,peak,2566
Beaver Mountain,40.9588556,-107.178667,5,peak,2556
Pine Scope Hill,40.9658001,-107.1278322,5,peak,2245
Twin Buttes,40.970522,-107.20839,5,peak,2571
Petite Tetons,40.9775552,-107.2300141,5,peak,2598
Flattop Mountain,40.9877438,-107.2156124,5,peak,2345
Buck Point,40.8241354,-107.367839,4,peak,3209
Mount Oliphant,40.8138577,-107.3783949,4,peak,3248
Mount Welba,40.8327462,-107.3875617,4,peak,3222
Sand Point,40.8244128,-107.4139513,4,peak,3029
Three Forks Mountain,40.9735779,-107.0894978,5,peak,2770
Piney Mountain,40.9480228,-107.1147764,5,peak,2836
Shield Mountain,40.9155236,-107.0725532,5,peak,3028
Elkhorn Mountain,40.9874672,-106.9647716,5,peak,2909
Butter Hill,40.9319124,-106.9950509,5,peak,2429
Black Mountain,40.935363,-106.7696136,161,peak,3240
Davis Peak,40.920348,-106.7007184,161,peak,3476
Independence Mountain,40.918306,-106.4455863,161,peak,2987
Sugar Loaf,40.9541388,-106.4408637,161,peak,2650
Dead Horse Hill,40.8866396,-106.4741987,161,peak,2632
Watson Mountain,40.9191406,-106.3341931,161,peak,2650
Dean Peak,40.9191411,-106.2825244,6,peak,2606
Sentinel Mountain,40.8974829,-106.2626794,6,peak,2770
Crazy Mountain,40.9402548,-105.9533413,8,peak,2638
Dempsey Dome,40.9271992,-105.9683423,7,peak,2416
Chimney Rock,40.9958117,-105.7683314,8,peak,2386
Bald Mountain,40.9955417,-105.5033252,191,peak,2442
Diamond Peak,40.9791508,-105.5599932,8,peak,2621
Iron Mountain,40.9438723,-105.5669382,8,peak,2649
Deadhorse Mountain,40.9538718,-105.5927721,8,peak,2762
Turkey Roost,40.902206,-105.4230445,191,peak,2357
Mount Evelyn,40.894706,-105.4624905,191,peak,2295
Goat Mountain,40.9005397,-105.4949918,8,peak,2370
Red Mountain,40.9072055,-105.2777608,9,peak,2163
Little Twins,40.9591507,-105.2755383,9,peak,2268
Table Mountain,40.9887077,-105.3310776,9,peak,2409
Little Bald Mountain,40.975262,-105.2683158,9,peak,2295
Table Mountain,40.9408172,-105.1755342,9,peak,2150
Sheep Mountain,40.9266502,-105.2394259,9,peak,2224
Mount Kimball,40.8947061,-105.4877693,8,peak,2306
Gage Hill,40.7885929,-105.1910914,9,peak,1839
Bobcat Mountain,40.8680387,-105.1510893,9,peak,1913
Deadman Butte,40.8144263,-105.2341484,9,peak,1852
Table Rock,40.8413712,-105.2360928,9,peak,1943
Eagles Nest,40.7714239,-105.2237465,191,peak,1916
Campbell Mountain,40.8227601,-105.1883133,9,peak,1947
Calloway Hill,40.8305378,-105.3094291,191,peak,1917
Livermore Mountain,40.7569254,-105.2924842,191,peak,2281
Haystack Butte,40.7577588,-105.4377677,191,peak,2371
Sheep Mountain,40.8027597,-105.4397122,191,peak,2425
Blacktail Point,40.8530384,-105.423878,191,peak,2266
Many Thunders Mountain,40.837321,-105.5638909,8,peak,2473
Mount Margaret,40.8177597,-105.5277712,191,peak,2422
Black Mountain,40.8716478,-105.6391637,8,peak,3030
South Bald Mountain,40.7524799,-105.6961132,8,peak,3347
Middle Bald Mountain,40.7652577,-105.7072245,8,peak,3334
North Bald Mountain,40.7758132,-105.6994461,8,peak,3342
Little Bald Mountain,40.8585902,-105.7569461,8,peak,3175
Deadman Hill,40.8110904,-105.7727815,8,peak,3196
North Middle Mountain,40.8030341,-105.8888975,7,peak,2701
Shipman Mountain,40.8283103,-106.0777938,6,peak,3294
Eagle Hill,40.821643,-106.1827988,6,peak,2544
Bear Mountain,40.7827515,-106.6117046,161,peak,3535
Flattop Mountain,40.8071953,-106.6355943,161,peak,3581
Mount Zirkel,40.8320564,-106.6611366,161,peak,3713
Big Agnes Mountain,40.8319168,-106.6897629,14,peak,3506
Little Agnes Mountain,40.8271945,-106.7178196,14,peak,3505
Diamond Peak,40.8033036,-107.0753317,5,peak,3166
Meaden Peak,40.7671932,-107.0769987,441,peak,3207
Mansfield Hill,40.8930323,-106.0391797,7,peak,2952
Pollock Knob,40.894421,-106.0575138,7,peak,2990
Iron Mountain,40.8577473,-106.9889402,5,peak,2952
Lester Mountain,40.7752496,-106.8981044,14,peak,2686
Grouse Mountain,40.8110822,-106.9056043,14,peak,2825
Twin Mountain,40.8410816,-106.9092153,14,peak,2686
Little Mountain,40.8283038,-106.9361609,14,peak,2889
Anderson Mountain,40.826915,-106.922827,14,peak,2800
Beryl Mountain,40.8316372,-106.9219936,14,peak,2835
Cap Smith Hill,40.8319145,-106.9767178,14,peak,2612
Nipple Peak,40.8727468,-107.0381082,5,peak,3152
Dome Peak,40.8741373,-106.8208785,5,peak,3138
Farwell Mountain,40.824138,-106.8489355,14,peak,3309
West Bears Ears Peak,40.7774546,-107.2492571,4,peak,3224
Saddle Mountain,40.7996924,-107.1528336,4,peak,3029
Sugar Loaf Mountain,40.7833037,-107.1839455,4,peak,2974
Diamond Mountain,40.732462,-108.9534515,1,peak,2598
Douglas Mountain,40.6330194,-108.8595589,2,peak,2637
Offield Mountain,40.6832957,-108.9562292,1,peak,2491
Dry Knob,40.6463539,-108.687053,2,peak,1972
Vermillion Mesa,40.7013536,-108.6826087,2,peak,1971
Dry Mountain,40.7138544,-108.55816,2,peak,2238
Allred Peak,40.5269108,-108.5559363,2,peak,2429
Chase Hill,40.5652439,-108.5734372,2,peak,1999
Bill Weller Mesa,40.5644105,-108.5842709,2,peak,2032
Limestone Hill,40.5713549,-108.5970492,2,peak,2085
Smelter Hill,40.5760768,-108.6437176,2,peak,2047
Reds Knob,40.5444095,-108.7812224,2,peak,2353
Zenobia Peak,40.6069083,-108.8701146,2,peak,2741
Jenny Lind Rock,40.5269083,-108.9792846,10,peak,1812
Monument Hill,40.6388556,-108.3881528,2,peak,1802
Lone Mountain,40.5760777,-108.4709334,2,peak,2034
Pigpen Hill,40.6624663,-108.4503777,2,peak,1928
Clay Buttes,40.7069106,-108.4414888,2,peak,1910
Yellow Cat Butte,40.7471886,-108.3381515,2,peak,1923
Peck Mesa,40.5435784,-108.3331498,11,peak,1941
Ninemile Hill,40.7110782,-108.1864782,3,peak,1849
Bald Mountain,40.6838564,-108.1195308,3,peak,2203
Lucas Hill,40.6474679,-108.0770289,3,peak,1930
Hat Hill,40.6141349,-108.035638,3,peak,2018
Schoonover Buttes,40.4799659,-108.7770551,10,peak,1906
Cleopatras Couch,40.4805209,-108.8573356,2,peak,1759
Marthas Peak,40.441077,-108.8703912,10,peak,2527
Tanks Peak,40.4258005,-108.765943,10,peak,2651
Hospital Hill,40.4735762,-108.9028927,2,peak,1598
Red Rock Bench,40.4619094,-108.9331714,10,peak,1891
Round Top Mountain,40.4416322,-108.9173374,10,peak,2614
Buena Vista Peak,40.4407987,-108.9251153,10,peak,2613
Plug Hat Rock,40.2895532,-108.9733437,10,peak,2132
Wapiti Peak,40.3738576,-108.2809241,11,peak,2356
Twelvemile Mesa,40.4005237,-108.3878729,10,peak,2084
Lone Mountain,40.3319136,-108.7045509,10,peak,2346
Moose Head Mountain,40.317468,-108.864001,10,peak,2588
Juniper Mountain,40.4494137,-108.0295258,211,peak,2394
M F Mountain,40.3716349,-108.5642683,10,peak,2010
Escarpment Peak,40.2980256,-108.1278619,11,peak,2403
Coal Mountain,40.3183036,-108.0445255,211,peak,2526
Kirchnary Butte,40.8949852,-103.287707,89,peak,1389
Molly and Mable,40.8866517,-103.3435421,89,peak,1332
Billy Goat Hill,40.9838731,-103.4988244,89,peak,1431
The Rocks,40.9355399,-103.4518787,89,peak,1367
Dipper Hill,40.9105398,-103.5482708,89,peak,1408
Earthlodge Rock,40.9672329,-104.5777381,87,peak,1761
Round Butte,40.9152619,-105.0488624,9,peak,1844
East Pawnee Butte,40.8235845,-103.9690401,88,peak,1573
Wildhorse Tit,40.7949812,-104.5716271,87,peak,1663
Cedar Hill,40.6744148,-107.4261738,4,peak,2147
Little Buck Mountain,40.7308027,-107.4786754,4,peak,2467
Pinnacle Mountain,40.6991372,-107.3797838,4,peak,2517
McInturf Mesa,40.7194147,-107.3867285,4,peak,2502
Baldy Peak,40.7374712,-107.2464471,4,peak,2743
Quaker Mountain,40.6963607,-107.1606118,441,peak,2844
Bull Hill,40.6419168,-107.1786678,441,peak,2355
Slide Mountain,40.7199709,-107.3108932,4,peak,2729
Buck Mountain,40.6774713,-107.3175599,4,peak,2409
Round Mountain,40.6580282,-107.063943,214,peak,2641
Pilot Knob,40.6508059,-107.1019994,214,peak,3001
Buck Mountain,40.6871946,-107.0089417,214,peak,2697
Picket Mountain,40.7163608,-107.0167197,214,peak,2804
Saddle Mountain,40.7483048,-107.0267199,214,peak,2802
Sevenmile Hill,40.5213596,-107.6778472,301,peak,2046
Lay Peak,40.503303,-107.8906322,301,peak,2027
Sugarloaf Peak,40.5560802,-107.9275782,3,peak,2015
Slippery Sides Mountain,40.5613628,-107.0631097,214,peak,2541
Cedar Mountain,40.5766371,-107.6086787,301,peak,2287
Signal Butte,40.4413595,-107.8542415,211,peak,1985
Little Juniper Mountain,40.4755249,-107.9923023,3,peak,2027
Rattlesnake Butte,40.5735851,-107.0181087,214,peak,2241
Sand Mountain,40.5519183,-107.0878324,214,peak,2507
Wolf Mountain,40.5808067,-107.1203332,214,peak,2785
Hillberry Mountain,40.4091426,-107.2147787,13,peak,2334
Windy Point,40.4344263,-106.1514119,17,peak,2659
Buck Peak,40.4449729,-107.4625623,13,peak,2271
Breeze Mountain,40.4858054,-107.4736741,13,peak,2127
Gnat Hill,40.4544178,-107.3881163,13,peak,2174
Thompson Hill,40.4791384,-107.5575652,13,peak,1979
Saddle Mountain,40.4799757,-106.9861634,131,peak,2162
Monument Butte,40.2983073,-107.662567,12,peak,2201
Mount Streeter,40.265251,-107.799238,211,peak,2175
Maggies Nipple,40.3333041,-107.9714672,211,peak,2267
Daton Peak,40.3355313,-107.3956153,13,peak,2156
Round Mountain,40.2566435,-107.4300597,12,peak,2382
Harper Hill,40.351363,-107.5347857,12,peak,2308
Rattlesnake Butte,40.3122014,-107.0333849,131,peak,2393
Pinnacle Peak,40.3380339,-107.0808862,131,peak,2251
Clinker Knob,40.3494145,-108.0345253,211,peak,2461
Citadel Plateau,40.2980253,-108.182864,11,peak,2370
Wolf Mountain,40.3710803,-108.1667529,11,peak,2275
Cedar Knob,40.4055835,-108.2204031,11,peak,2059
Mellen Hill,40.1580249,-108.9498346,10,peak,1933
Spooky Mountain,40.2094154,-108.8317763,10,peak,1925
Stadtman Mesa,40.1871922,-108.4734297,22,peak,1798
Blair Mountain,40.1463593,-108.3692587,22,peak,2061
Colorow Mountain,40.1821927,-108.1789741,11,peak,2398
Strawberry Peak,40.1802493,-108.0123012,11,peak,2085
Banty Point,40.0399696,-108.9898323,21,peak,1805
Red Hill,40.020808,-108.5800986,21,peak,2312
Buckskin Mesa,40.0699722,-108.0139672,11,peak,1977
The Monument,40.0855274,-108.0586912,11,peak,1998
Sagebrush Hill,39.9133074,-108.553708,22,peak,2337
Miller Hill,39.8849725,-108.2906427,22,peak,1891
Segar Mountain,39.9160846,-108.0103548,22,peak,2473
Joe Bush Mountain,39.8969182,-108.0070212,22,peak,2538
White Face Butte,39.7616387,-109.0317745,21,peak,2139
Texas Mountain,39.7758089,-108.8526038,21,peak,2577
Bald Knob,39.8485854,-108.0078541,22,peak,2405
Twin Buttes,39.6738648,-108.825936,21,peak,2560
Brushy Point,39.7310881,-108.7320451,21,peak,2590
Scare Mountain,39.6727546,-108.7331558,21,peak,2704
Lookout Mountain,39.5427536,-108.8403802,30,peak,2540
Mount Blaine,39.5116439,-108.3398093,31,peak,2456
McAlpin Mountain,40.7402495,-106.9936636,214,peak,2759
Round Mountain,40.6888619,-106.922828,14,peak,2447
Moon Hill,40.6452514,-106.9222727,14,peak,2441
Mount Pau,40.6655289,-106.9225503,14,peak,2481
Mount Candy,40.6677512,-106.9094944,14,peak,2552
Floyd Peak,40.7019181,-106.8047686,14,peak,2870
The Dome,40.6858081,-106.7058763,14,peak,3581
Lost Ranger Peak,40.6902528,-106.6722636,16,peak,3641
Mount Ethel,40.6477535,-106.68032,16,peak,3625
Pitchpine Mountain,40.6783096,-106.5508694,16,peak,2670
Delaney Butte,40.701643,-106.4869778,16,peak,2828
Elk Mountain,40.7160895,-106.0450164,6,peak,2685
Johnny Moore Mountain,40.6402571,-106.0925192,6,peak,2755
Deer Mountain,40.5333088,-106.8964393,214,peak,2258
Elk Mountain,40.5691411,-106.9675519,214,peak,2660
The Sleeping Giant,40.5610856,-106.9728298,214,peak,2637
Rocky Peak,40.579142,-106.8394932,14,peak,2771
Round Mountain,40.5794214,-106.6769873,16,peak,3218
Buffalo Mountain,40.5127551,-106.7364357,14,peak,3165
Horse Thief Peak,40.6146979,-106.7344897,14,peak,3314
Pole Mountain,40.5230362,-106.4819781,16,peak,2814
Custer Mountain,40.5824805,-106.0444625,6,peak,2826
Michigan Hill,40.6144241,-106.0869637,6,peak,2636
Emerald Mountain,40.4619217,-106.850049,131,peak,2515
Howelsen Hill,40.4805325,-106.8406049,131,peak,2186
Mount Werner,40.4560895,-106.7403244,14,peak,3220
Diamond Mountain,40.3847045,-106.5108693,181,peak,2880
White Slide,40.4491471,-106.6011509,16,peak,2904
Rabbit Ears Peak,40.4270683,-106.6110421,16,peak,3166
Harrison Hump,40.4652582,-106.5847612,16,peak,2783
Ironclad Mountain,40.4097042,-106.4433666,17,peak,2854
Little Haystack Mountain,40.3797045,-106.3808647,17,peak,3248
Spicer Peak,40.445537,-106.3961425,17,peak,2920
Red Hill,40.4035929,-106.3200291,17,peak,3491
Aspen Knoll,40.4455367,-106.2761385,17,peak,2697
Buffalo Peak,40.4708142,-106.3447517,17,peak,2880
Thorpe Mountain,40.2997027,-106.9144932,15,peak,2738
Woodchuck Hill,40.2572045,-106.8125457,15,peak,2724
Blacktail Mountain,40.2985922,-106.8411581,15,peak,2645
Walton Peak,40.3544255,-106.6992103,15,peak,3214
Grannys Nipple,40.275817,-106.4583684,181,peak,2511
Middle Carter Mountain,40.2705394,-106.4211449,181,peak,2636
Carter Mountain,40.2994278,-106.4264225,181,peak,2795
Whiteley Peak,40.3180388,-106.4933692,181,peak,3071
Grannys Nightcap,40.3316497,-106.4497565,181,peak,2931
White Slide Mountain,40.327483,-106.398088,181,peak,3309
Red Slide Mountain,40.3352607,-106.3964212,181,peak,3313
Chimney Rock,40.344705,-106.4194775,181,peak,3088
South Ryder Peak,40.3594271,-106.4605899,181,peak,2978
North Ryder Peak,40.3677604,-106.4633677,181,peak,2997
Sheep Mountain,40.3610935,-106.2658609,17,peak,3602
Coal Mountain,40.2591507,-106.3503091,181,peak,2908
Hyannis Peak,40.3585936,-106.312807,17,peak,3540
Parkview Mountain,40.330197,-106.1362778,18,peak,3748
Haystack Mountain,40.3272055,-106.1891917,18,peak,3503
Sheep Mountain,40.3091501,-106.2408604,18,peak,3445
Little Gravel Mountain,40.2569296,-106.0077967,18,peak,3505
Radial Mountain,40.3597059,-106.0519644,171,peak,3426
Devils Grave Mesa,40.1835938,-106.9489373,231,peak,2520
Eagle Rock,40.141373,-106.8736571,15,peak,2634
Simpson Mountain,40.2285942,-106.7933782,15,peak,2465
King Mountain,40.0019314,-106.8583771,26,peak,3088
Tyler Mountain,40.1960955,-106.5186478,27,peak,2857
Gore Mountain,40.2235948,-106.6575409,15,peak,3237
Little Wolford Mountain,40.1327628,-106.3666976,181,peak,2678
Wolford Mountain,40.1180407,-106.3914205,181,peak,2793
Junction Butte,40.0283189,-106.3525296,37,peak,2675
Red Mountain,40.0560965,-106.3441962,181,peak,2418
Searight Mountain,40.2197071,-106.1441904,18,peak,3132
Black Mountain,40.1402628,-106.2064144,18,peak,2895
Slide Mountain,40.1422071,-106.2250262,18,peak,3009
Elk Mountain,40.1619295,-106.1283562,18,peak,3480
Grouse Mountain,40.143874,-106.1636352,18,peak,3161
Pagoda Peak,40.1397017,-107.3333902,12,peak,3388
Old Baldy,40.1877497,-107.9700773,211,peak,2454
Devils Hole Mountain,40.1827504,-107.9003524,211,peak,2646
Coal Butte,40.2016393,-107.8953524,211,peak,2581
Uranium Peak,40.1285861,-107.7031227,23,peak,2846
Sleepy Cat Peak,40.127477,-107.5336727,12,peak,3295
Baldy Mountain,40.1694707,-107.537775,12,peak,2968
Wilson Mesa,40.2058097,-107.5206172,12,peak,2835
Iles Mountain,40.2002535,-107.5928417,12,peak,2687
Scott Hill,40.2169214,-107.4564489,12,peak,2340
Big Sugarloaf Mountain,40.1935882,-107.4708936,12,peak,2669
Upper Sugarloaf Mountain,40.1869215,-107.4753381,12,peak,2776
Horse Mountain,40.1974778,-107.4120034,12,peak,2817
Burro Mountain,40.1838674,-107.3708913,12,peak,2991
Baldy Mountain,40.1235924,-107.2067207,12,peak,2915
Dunckley Flat Tops,40.2269242,-107.2006098,231,peak,3074
Heart Mountain,40.1730381,-107.0069944,231,peak,2567
Bellyache Mountain,40.1449827,-107.0417172,231,peak,2991
Pinnacle Peak,40.2330363,-107.0675515,131,peak,2747
Meeker Dome,40.0416405,-107.8545166,23,peak,2036
Rattlesnake Mesa,40.0738631,-107.7984035,23,peak,2135
Sawmill Mountain,40.0852536,-107.6628432,23,peak,2883
Old Baldy,40.0205337,-107.5303383,24,peak,2594
Ellison Mountain,40.0635879,-107.5970076,23,peak,2798
Sand Peak,40.1155348,-107.3792244,12,peak,3303
Snell Mountain,40.1008129,-107.3586684,24,peak,3197
Himes Peak,40.0008155,-107.2636663,24,peak,3388
Pyramid Peak,40.1220781,-107.1685881,12,peak,3462
Lost Lakes Peaks,40.0574821,-107.2183876,12,peak,3338
Maggies Nipple,40.0822063,-107.0397724,231,peak,3331
Orno Peak,40.0822055,-107.0969959,231,peak,3696
Flat Top Mountain,40.0151423,-107.0835364,26,peak,3766
LO 7 Hill,39.9513633,-107.8925729,23,peak,2600
Burro Mountain,39.8938677,-107.5883946,24,peak,3098
Buford Peak,39.9760893,-107.5542276,24,peak,2940
Camel Peak,39.986646,-107.4692254,24,peak,3057
Timber Mountain,39.8947035,-107.3586673,24,peak,3476
Big Marvine Peak,39.9499813,-107.3408896,24,peak,3614
Shingle Peak,39.901372,-107.2067202,24,peak,3615
W Mountain,39.8741508,-107.1372737,25,peak,3624
Dome Peak,39.9895968,-107.0484476,26,peak,3713
Derby Mesa,39.8902634,-107.0350486,25,peak,2880
Middle Mountain,39.8399776,-107.7986796,23,peak,2810
Coulter Mesa,39.7377581,-107.7314539,33,peak,2799
Middle Mountain,39.8483123,-107.6372848,23,peak,2785
Snowdrift Mountain,39.7785908,-107.7353434,33,peak,2807
Little Hill,39.7974794,-107.7197874,33,peak,2808
Clinetop Mesa,39.7510924,-107.4578337,33,peak,3246
Blair Mountain,39.7944257,-107.417556,24,peak,3492
White River Plateau,39.7533151,-107.3814443,24,peak,3466
Fowler Peak,39.8699801,-107.4836687,24,peak,3185
Hunns Peak,39.7880376,-107.3322776,24,peak,3420
Triangle Mountain,39.8155379,-107.2861662,25,peak,3231
Elk Knob,39.86526,-107.2869996,24,peak,3331
Turret Peak,39.8743498,-107.1967499,25,peak,3498
Little Sugarloaf Mountain,39.8335961,-107.0747716,25,peak,3015
Sugarloaf Mountain,39.8224851,-107.0622711,25,peak,2934
Monument Peak,39.7196995,-107.9167385,23,peak,2796
Horse Mountain,39.7155345,-107.8272906,33,peak,2869
Hadley Point,39.6935919,-107.5470017,33,peak,2761
Joe Hill,39.6852587,-107.5370013,33,peak,2808
Spring Hill,39.7052593,-107.4136664,33,peak,3386
Flatiron Mountain,39.6616484,-107.3869992,34,peak,3297
Baxter Peak,39.6744265,-107.3181102,34,peak,3409
Blowout Hill,39.683618,-107.0371529,35,peak,2648
Roan Plateau,39.5849777,-107.9581277,32,peak,2763
Webster Hill,39.505257,-107.8814569,32,peak,1677
Hubbard Mesa,39.5824793,-107.8361782,32,peak,1959
Prefontaine Mesa,39.5427613,-107.79713,32,peak,1684
Weible Peak,39.5249806,-107.6533925,42,peak,1797
Burning Mountain,39.5930362,-107.6056138,33,peak,2339
Horse Mountain,39.5405368,-107.4419982,42,peak,2516
Storm King Mountain,39.5894259,-107.4008876,34,peak,2675
Red Hill,39.6172066,-107.0281025,44,peak,2483
Gobbler Knob,39.5808171,-107.0761596,444,peak,2530
Buck Point,39.5149832,-107.1161608,444,peak,2708
Grassy Mountain,39.4841426,-108.8948264,30,peak,2077
Castle Rock,39.4466441,-108.4389791,31,peak,2396
Mount Logan,39.4016451,-108.1889697,31,peak,2561
Red Pinnacle,39.4505337,-108.2275826,31,peak,2401
Mount Callahan,39.4408115,-108.1164667,32,peak,2611
High Mesa,39.4044226,-108.0381297,42,peak,1956
Garfield Mesa,39.3677557,-108.8326027,30,peak,1520
Garfield Mesa,39.3458116,-108.5867615,30,peak,2140
Corcoran Peak,39.3105343,-108.5087036,31,peak,2449
Redrock Point,39.2691459,-108.4475901,31,peak,2009
Twin Peaks,39.3474786,-108.3453644,31,peak,2263
Castle Rock,39.2849793,-108.2820287,31,peak,1574
Pyramid Rock,39.3085902,-108.2698061,31,peak,1697
Horsethief Mountain,39.2769233,-108.1331333,42,peak,2390
Castle Peak,39.2710898,-108.0945204,421,peak,2527
Horse Mountain,39.3227562,-108.0339623,42,peak,2833
Housetop Mountain,39.3222007,-108.0589635,42,peak,2532
Creek Mesa,39.3535896,-108.1109105,42,peak,1769
Basin Butte,37.2199948,-108.6225934,73,peak,2169
Round Mountain,39.2297019,-108.4548125,31,peak,2076
Mount Lincoln,39.135814,-108.3525861,31,peak,2021
Indian Peak,39.1927574,-108.1353549,421,peak,1682
Black Mountain,39.2160906,-108.176746,421,peak,2011
West Monument,39.220813,-108.2298041,42,peak,1790
Kimbell Mesa,39.2402573,-108.2134145,42,peak,1843
Chalk Mountain,39.1305362,-108.2120249,41,peak,2466
Barney Hill,39.1285915,-108.1786899,41,peak,2168
Place Mesa,39.2035905,-108.118132,421,peak,1929
Round Mountain,39.2352564,-108.0281281,421,peak,1847
Mormon Mesa,39.1724791,-108.0070153,421,peak,2131
Dinkle Hill,39.1766461,-108.0831301,421,peak,1835
The Beehive,39.1658129,-108.1059089,421,peak,1917
Georgia Mesa,39.1574793,-108.0364609,421,peak,2034
Nick Mountain,39.1244239,-108.0109038,421,peak,2699
Riggs Hill,39.0760927,-108.6470409,40,peak,1496
Saddlehorn,39.1023849,-108.7326492,40,peak,1780
Orchard Mesa,39.0341486,-108.5145362,41,peak,1434
Central Orchard Mesa,39.0416485,-108.4589786,41,peak,1453
Whitewater Hill,39.0158154,-108.4892574,40,peak,1508
Horse Mountain,39.0697037,-108.3350851,41,peak,1821
Long Mesa,39.0116488,-108.3345293,41,peak,1672
Holms Mesa,39.4597009,-107.9297921,42,peak,1974
Houston Mountain,39.4113681,-107.8770116,42,peak,3126
Doghead Mountain,39.4147009,-107.9370143,42,peak,2956
Morrisania Mesa,39.4560894,-107.9792386,42,peak,1843
Grass Mesa,39.4688691,-107.7711742,42,peak,2116
Flatiron Mesa,39.45748,-107.7978418,42,peak,2403
Log Mesa,39.4283128,-107.8478438,42,peak,2721
North Mamm Peak,39.3888682,-107.8661777,42,peak,3280
Hunter Mesa,39.4385915,-107.747284,42,peak,2040
Crown Peak,39.4283141,-107.5186653,42,peak,2431
Center Mountain,39.4616476,-107.4775534,42,peak,2602
Sunlight Peak,39.4263707,-107.380331,43,peak,3223
Little Baldy Mountain,39.4174812,-107.4622757,42,peak,2932
Bald Mountain,39.3958148,-107.4275533,42,peak,3162
White Hill,39.3958166,-107.1994957,43,peak,1929
Red Hill,39.4227608,-107.2297746,444,peak,2136
Sugarloaf Mountain,39.351645,-107.9886828,42,peak,2737
Haystack Mountain,39.3733123,-107.9061793,42,peak,3340
South Mamm Peak,39.3713682,-107.8672887,421,peak,3358
Keep Mountain,39.3152576,-107.7811734,421,peak,2813
Little Baldy,37.3211136,-107.7683969,75,peak,2218
Elk Mountain,39.3330352,-107.8150639,421,peak,3124
Bald Mountain,39.3338687,-107.7864515,421,peak,3151
Hightower Mountain,39.2652583,-107.6367243,421,peak,2901
Mud Hill,39.3438692,-107.6964484,421,peak,2610
Reno Mountain,39.2552587,-107.5650558,42,peak,2976
Van Mountain,39.2552588,-107.5372774,42,peak,2829
Mosquito Mountain,39.3263699,-107.510332,42,peak,3197
Flagpole Mountain,39.3358143,-107.5111653,42,peak,3232
Flatiron Mountain,39.3330364,-107.5625556,42,peak,2500
Haystack Mountain,39.2708147,-107.4764427,42,peak,2762
Quaker Mesa,39.268593,-107.4353311,42,peak,2734
Flat Top Mountain,39.2827596,-107.4328311,42,peak,2894
Twin Peaks,39.2999822,-107.3922752,43,peak,3285
Mount Sopris,39.2612136,-107.1647648,43,peak,3841
McCartney Mesa,39.2549847,-107.0642133,43,peak,2710
Bald Mountain,39.1294239,-107.9767357,421,peak,2795
Old Man Mountain,39.1535906,-107.9395123,421,peak,2624
Maigatter Knob,39.1919234,-107.9834034,421,peak,2089
Sugarloaf Peak,39.201646,-107.9036779,421,peak,2249
Red Mountain,39.220257,-107.910345,421,peak,2369
Kansas Mesa,39.2224788,-107.9614583,421,peak,1917
Campbell Mountain,39.2338686,-107.8064517,421,peak,2682
Bronco Knob,39.1527596,-107.6547803,421,peak,3089
Porter Mountain,39.1974811,-107.6586693,421,peak,3036
Two Peak,39.2097029,-107.6878366,421,peak,2837
Baldridge Point,39.2141471,-107.7142261,421,peak,2782
Lenna Peak,39.2324803,-107.6983925,421,peak,2714
Oil Well Mountain,39.168038,-107.5892232,521,peak,3073
Spruce Mountain,39.1972046,-107.5222772,521,peak,3290
Ruth Mountain,39.2227591,-107.5900565,421,peak,2809
Elk Knob,39.2030382,-107.485332,521,peak,2954
Huntsman Mountain,39.1849844,-107.3597746,43,peak,3590
Capitol Peak,39.15021,-107.082727,43,peak,4309
Clark Peak,39.1523922,-107.0610062,43,peak,4137
Mount Daly,39.1722087,-107.0686579,43,peak,4053
Haystack Mountain,39.193875,-107.0656022,43,peak,3723
Horse Mountain,39.096862,-107.9359656,421,peak,3221
Green Mountain,39.0044257,-107.7608934,52,peak,3293
Leon Peak,39.0794249,-107.8439523,421,peak,3425
Doughty Mountain,39.0083152,-107.7278371,52,peak,3085
Mount Hatten,39.0477605,-107.6808919,52,peak,3446
Priest Mountain,39.0427593,-107.7339484,52,peak,3351
Mount Darline,39.0294278,-107.6581137,52,peak,3445
Chalk Mountain,39.1124823,-107.6592248,521,peak,3399
Crater Peak,39.0397054,-107.6631138,52,peak,3447
Electric Mountain,39.0788736,-107.5608896,521,peak,3138
Sheep Mountain,39.0894304,-107.4506096,521,peak,2674
Pilot Knob,39.0116547,-107.4661657,521,peak,2949
Bull Mountain,39.0574873,-107.3958863,521,peak,2493
Chair Mountain,39.0580439,-107.2822728,521,peak,3876
Ragged Peak,39.0366555,-107.2822727,521,peak,3839
Elk Mountain,39.1030432,-107.1981047,43,peak,3599
Mount Daly,39.1032882,-107.1501735,43,peak,3616
Gallo Hill,39.0897102,-107.1997714,43,peak,3136
Hat Mountain,39.0702664,-107.1575483,43,peak,2795
Ragged Mountain,39.0202673,-107.235605,521,peak,3681
Mount Justice,39.014339,-107.1710789,521,peak,3593
Whitehouse Mountain,39.0513779,-107.1542149,43,peak,3644
Snowmass Peak,39.1110787,-107.055905,43,peak,4102
Hagerman Peak,39.1121063,-107.0603299,43,peak,4211
Snowmass Mountain,39.1188405,-107.0664852,43,peak,4297.3
Mount Richey,39.1174876,-107.1214366,43,peak,3779
Meadow Mountain,39.0999881,-107.1006029,43,peak,3920
Arkansas Mountain,39.0847106,-107.1114364,43,peak,3615
Mineral Point,39.0610727,-107.0873815,43,peak,3359
Little Bear Mountain,39.0474444,-107.1161165,43,peak,3283
Bear Mountain,39.0351573,-107.1116705,43,peak,3762
Treasury Mountain,39.0143331,-107.0990806,43,peak,4080
Crystal Peak,39.0360166,-107.0879915,43,peak,3837
Galena Mountain,39.0227678,-107.0764357,43,peak,3831
Mount Bellview,39.0161014,-107.0167126,55,peak,3811
Sheephorn Mountain,39.9580417,-106.4419763,37,peak,2917
Dora Mountain,39.7849857,-106.2969721,371,peak,3649
Haystack Mountain,39.9144409,-106.2934211,37,peak,2746
Green Mountain,39.8905413,-106.3269729,37,peak,2846
Little Green Mountain,39.8885969,-106.3472512,37,peak,2657
Sheep Mountain,39.8784121,-106.4327353,37,peak,3381
Dice Hill,39.9352639,-106.4389205,37,peak,2997
Slate Mountain,39.7610971,-106.4283638,36,peak,3378
Mount Powell,39.4272093,-106.3400267,45,peak,3118
Eagles Nest,39.7754463,-106.3503379,371,peak,4057
Piney Peak,39.8188751,-106.4975323,361,peak,3525
Old Baldy,39.7588753,-106.019184,28,peak,3609
Ute Peak,39.7858194,-106.0775197,28,peak,3741
Sugarloaf,39.7810974,-106.025851,28,peak,3031
Flat Top,39.8213747,-106.1558562,37,peak,2985
Prairie Mountain,39.8330415,-106.1175213,28,peak,3250
Williams Peak,39.8774856,-106.2058581,28,peak,3530
Battle Mountain,39.9447079,-106.1703011,28,peak,2603
Blue Hill,39.8769312,-106.8405971,35,peak,2150
Black Mountain,39.9869315,-106.6564264,15,peak,3103
Congor Mesa,39.9399871,-106.696149,15,peak,2662
Yarmony Mountain,39.9133202,-106.640314,15,peak,2884
Big Red Hill,39.7572082,-106.9503221,35,peak,2567
Greenhorn Mountain,39.7460974,-106.881986,35,peak,2931
Black Mountain,39.8297086,-106.9128214,35,peak,2619
Castle Peak,39.7723501,-106.8301554,35,peak,3426
West Peak,39.8588753,-106.5475337,36,peak,3369
Cottonwood Peak,39.8474864,-106.5314221,361,peak,3503
Bocco Mountain,39.7208198,-106.7025355,35,peak,2393
Bald Mountain,39.6783192,-106.330028,36,peak,3698
Red Peak,39.6365651,-106.1711834,371,peak,4004
Keller Mountain,39.6899858,-106.2314146,371,peak,3985
Ptarmigan Peak,39.6909054,-106.0263834,28,peak,3809
Suicide Mountain,39.5310951,-106.9692115,44,peak,3001
Red Table Mountain,39.4180407,-106.7711485,444,peak,3665
Coffin Mountain,39.5563739,-106.7867046,44,peak,2834
Adam Mountain,39.5047071,-106.7092023,44,peak,3391
Porphyry Mountain,39.5358185,-106.6786461,44,peak,3302
Horse Mountain,39.5877633,-106.7333695,44,peak,2629
Bellyache Mountain,39.5908189,-106.664757,44,peak,2936
Grouse Mountain,39.5208192,-106.5086423,45,peak,3896
Shrine Mountain,39.5352641,-106.2594704,45,peak,3621
Battle Mountain,39.5635972,-106.3280831,45,peak,3502
Ptarmigan Point,39.5999475,-106.3766063,45,peak,3345
Uneva Peak,39.5572085,-106.1961351,371,peak,3819
Buffalo Mountain,39.616653,-106.1428299,371,peak,3886
Tenmile Peak,39.5360294,-106.1211313,37,peak,3930
Peak 3,39.5283277,-106.1201372,37,peak,3845
Peak 4,39.5216508,-106.1214267,37,peak,3897
Peak 5,39.5147632,-106.116647,37,peak,3916
Swan Mountain,39.5694311,-106.0219622,37,peak,3282
Ophir Mountain,39.5590747,-106.0735231,37,peak,3102
Royal Mountain,39.5681863,-106.110057,37,peak,3200
Peak 1,39.5430537,-106.1199699,37,peak,3900
Joe Davis Hill,37.9491583,-108.827602,711,peak,2248
Buck Knob,37.9966589,-108.6225944,70,peak,2273
Brumley Point,37.8922137,-108.5648155,70,peak,2232
McKenna Peak,37.9049917,-108.5470369,70,peak,2418
Island Mesa,37.9547143,-108.4275874,70,peak,2689
North Mountain,37.9091588,-108.4092536,70,peak,3014
Little Cone,37.9274927,-108.0909058,70,peak,3653
Flat Top Peak,37.881382,-108.1031291,70,peak,3529
Glade Mountain,37.7761015,-108.5878727,711,peak,2794
South Mountain,37.8094364,-108.4559229,711,peak,2870
Flattop Mountain,37.7916594,-108.3184172,71,peak,2967
Groundhog Mountain,37.8349929,-108.2186904,71,peak,3696
Black Mesa,37.7955488,-108.2014676,71,peak,3456
Dunn Peak,37.8474933,-108.1256305,70,peak,3831
Dolores Peak,37.8402712,-108.0964626,71,peak,4052
El Diente Peak,37.8394229,-108.0060074,71,peak,4310
Ormiston Point,37.6577674,-108.6712091,711,peak,2333
Narraguinnep Mountain,37.7183242,-108.556205,711,peak,2753
Elston Mountain,37.6941585,-108.5095365,711,peak,2782
Beaver Mountain,37.7163816,-108.3681417,71,peak,2836
Nipple Mountain,37.7013822,-108.2845271,71,peak,2978
Bald Hill,37.6544377,-108.3286956,71,peak,2796
Taylor Mesa,37.6533279,-108.1517441,71,peak,3272
Johnny Bull Mountain,37.7196134,-108.0902215,71,peak,3623
Calico Peak,37.7102724,-108.0903525,71,peak,3663
Eagle Peak,37.7063834,-108.1020197,71,peak,3683
Papoose Peak,37.7436056,-108.0606289,71,peak,3615
Elliott Mountain,37.7344157,-108.0579697,71,peak,3757
Sockrider Peak,37.7255502,-108.065907,71,peak,3748
Sandstone Mountain,37.7194392,-108.0384059,71,peak,3187
Telescope Mountain,37.7166618,-108.0059046,71,peak,3725
Storm Peak,37.6869392,-108.0878525,71,peak,3682
Anchor Mountain,37.6963836,-108.0809078,71,peak,3757
Expectation Mountain,37.6941616,-108.0684073,71,peak,3673
Landslip Mountain,37.6772172,-108.0745187,71,peak,3549
Newman Hill,37.6830509,-108.021461,71,peak,3006
Dolores Mountain,37.6833287,-108.0059049,71,peak,3690
Island Mesa,37.8536037,-108.2770261,70,peak,2923
The Island,37.5438801,-108.9812194,72,peak,1934
Lone Dome,37.6211012,-108.6662087,711,peak,2113
Orphan Butte,37.5711074,-108.0214618,71,peak,3395
Sheep Mountain,40.6819241,-105.9339013,7,peak,3601
North Rawah Peak,40.6760907,-105.9669583,6,peak,3799
South Rawah Peak,40.6591466,-105.955847,6,peak,3854
Sleeping Elephant Mountain,40.6772029,-105.7655616,19,peak,2770
Boston Peak,40.7069247,-105.7652835,8,peak,2850
Crown Point,40.6292395,-105.6842832,19,peak,3478
Quigley Mountain,40.6380373,-105.5124948,19,peak,2610
Pingree Hill,40.7269885,-105.5712676,191,peak,2609
Prohibition Mountain,40.7394248,-105.6072201,8,peak,2769
Bear Mountain,40.6602594,-105.3983231,19,peak,2314
Mount Simon,40.7399809,-105.3927661,191,peak,2308
Mount Morian,40.734981,-105.4122115,191,peak,2321
Manhead Mountain,40.7372031,-105.4422126,191,peak,2431
Lonetree Mountain,40.7215487,-105.4912852,191,peak,2436
Sheep Mountain,40.6822036,-105.4247128,191,peak,2291
Red Mountain,40.6917439,-105.3920837,191,peak,2227
Mount McConnel,40.6720451,-105.4645843,19,peak,2440
Mount Ethel,40.6355375,-105.352766,19,peak,2578
Greyrock Mountain,40.7155369,-105.2924848,191,peak,2320
Goat Hill,40.642482,-105.1699809,19,peak,1708
Bonner Peak,40.7394257,-105.2047033,191,peak,2113
North Diamond Peak,40.5217452,-105.9110932,6,peak,3613
Clark Peak,40.6066476,-105.9300132,6,peak,3947
Flat Top Mountain,40.5322048,-105.8261211,19,peak,3453
Iron Mountain,40.5069273,-105.8519558,19,peak,3731
Bald Mountain,40.5591489,-105.8369546,19,peak,3304
Fall Mountain,40.5285941,-105.661392,20,peak,3736
Comanche Peak,40.5471519,-105.6789129,20,peak,3868
Skull Point,40.5135942,-105.6308353,20,peak,3675
Ramsey Peak,40.5249829,-105.61389,20,peak,3524
Stormy Peaks,40.5199829,-105.5869445,20,peak,3692
Sugarloaf Mountain,40.5166497,-105.6172236,20,peak,3701
South Signal Mountain,40.5185939,-105.5186082,19,peak,3426
East White Pine Mountain,40.6047043,-105.4458259,19,peak,3111
West White Pine Mountain,40.6052598,-105.4716603,19,peak,3140
Boiler Hill,40.5294271,-105.3913803,20,peak,2697
Turner Hill,40.5622046,-105.4244368,20,peak,2517
Crystal Mountain,40.5391493,-105.432493,20,peak,3029
Lookout Mountain,40.5344271,-105.4597165,20,peak,3230
Hyatt Hill,40.516094,-105.3527677,20,peak,2361
Buckhorn Mountain,40.6110932,-105.324154,19,peak,2524
Deadman Hill,40.5660936,-105.3069317,19,peak,1991
Fletcher Hill,40.5294272,-105.274153,20,peak,1882
Parks Hill,40.5263717,-105.3602679,20,peak,2442
Christ Mountain,40.575538,-105.2849862,19,peak,2406
Bingham Hill,40.6230378,-105.1583141,19,peak,1633
Horsetooth Mountain,40.5397049,-105.1969277,19,peak,2197
Farview Mountain,40.3777617,-105.9475159,171,peak,3726
Parika Peak,40.3852616,-105.9469603,171,peak,3769
Mount Cindy,40.418039,-105.940571,171,peak,3667
Bearpaws Peaks,40.4324832,-105.9708499,171,peak,3268
Seven Utes Mountain,40.4783161,-105.9347371,171,peak,3477
Static Peak,40.4766497,-105.8916798,171,peak,3833
Mount Richthofen,40.4694275,-105.8950133,18,peak,3929
Tepee Mountain,40.4633164,-105.8986246,171,peak,3751
Lead Mountain,40.4485944,-105.8972358,171,peak,3802
Mount Cirrus,40.4344278,-105.9019582,18,peak,3880
Howard Mountain,40.4269279,-105.8989025,171,peak,3890
Mount Cumulus,40.4102614,-105.9022362,18,peak,3881
Red Mountain,40.3991505,-105.8791797,18,peak,3535
Mount Stratus,40.3899838,-105.9036252,18,peak,3798
Mount Nimbus,40.3963727,-105.9041807,18,peak,3854
Green Knoll,40.386095,-105.8969583,18,peak,3734
Shipler Mountain,40.4266504,-105.8355667,18,peak,3443
Lulu Mountain,40.4799831,-105.8627897,18,peak,3719
Jackstraw Mountain,40.3874841,-105.8122326,18,peak,3564
Sheep Rock,40.4158172,-105.8136214,18,peak,3325
Thunder Mountain,40.4860942,-105.8547338,18,peak,3666
Mount Dickinson,40.4874832,-105.5658328,20,peak,3601
Mount Dunraven,40.48915,-105.6080568,20,peak,3829
Mount Tileston,40.4474835,-105.6202798,20,peak,3422
Dark Mountain,40.4326566,-105.5736509,20,peak,3308
Castle Mountain,40.3897059,-105.5505551,20,peak,2676
MacGregor Mountain,40.4135947,-105.5769449,20,peak,3195
Oldman Mountain,40.3788727,-105.5433327,20,peak,2531
Sundance Mountain,40.4083173,-105.7105616,20,peak,3794
Mount Chapin,40.4335331,-105.7018917,20,peak,3796
Marmot Point,40.4422752,-105.73685,20,peak,3624
Mount Chiquita,40.4437525,-105.6887988,20,peak,3978
Ypsilon Mountain,40.4573698,-105.6812123,20,peak,4098
Fairchild Mountain,40.4683331,-105.664267,20,peak,4116.18
West Desolation Peak,40.471473,-105.6951347,20,peak,3937
Flatiron Mountain,40.4845082,-105.7111877,20,peak,3754
Hagues Peak,40.4845827,-105.6463815,20,peak,4133
Rowe Mountain,40.49665,-105.6483363,20,peak,4018
Storm Mountain,40.4855387,-105.3858251,20,peak,3015
Triangle Mountain,40.4647054,-105.4516614,20,peak,2560
Crosier Mountain,40.4323017,-105.424983,20,peak,2809
Spruce Mountain,40.4883164,-105.3002657,20,peak,2371
Palisade Mountain,40.4402613,-105.3111001,20,peak,2507
Sheep Mountain,40.4122847,-105.3109487,20,peak,2575.6
Pole Hill,40.3766507,-105.3683253,20,peak,2647
Milner Mountain,40.4974829,-105.1824831,20,peak,2101
Mariana Butte,40.3980392,-105.1402603,20,peak,1602
Cherry Hill,40.3785947,-105.0933144,20,peak,1540
Mineral Point,40.3602619,-105.9047365,18,peak,3501
Bowen Mountain,40.3605397,-105.9333488,18,peak,3823
Ruby Mountain,40.3549841,-105.9555719,171,peak,3660
Cascade Mountain,40.3408176,-105.9597388,18,peak,3746
Gravel Mountain,40.274985,-105.9950183,18,peak,3530
Porphyry Peaks,40.2841516,-105.9464052,18,peak,3269
Nakai Peak,40.3436411,-105.7759225,18,peak,3723
Mount Ida,40.3720883,-105.7788486,20,peak,3926
Cracktop,40.3658176,-105.7666753,20,peak,3890
Mount Julian,40.3710954,-105.7575082,20,peak,3940
Mount Patterson,40.300818,-105.7875098,18,peak,3480
Nisa Mountain,40.2885959,-105.7986215,18,peak,3290
Green Mountain,40.2960959,-105.8225112,18,peak,3134
Stones Peak,40.3544288,-105.7205624,20,peak,3930
Gabletop Mountain,40.333096,-105.7014194,20,peak,3603
Joe Mills Mountain,40.3260913,-105.6798196,20,peak,3298
Little Matterhorn,40.3272067,-105.6927836,20,peak,3515
Notchtop Mountain,40.3190189,-105.6944477,20,peak,3706
Glacier Knobs (East),40.2989543,-105.6429539,20,peak,2985
The Sharkstooth,40.2807909,-105.6740026,20,peak,3802
Half Mountain,40.2899845,-105.6327814,20,peak,3486
Arrowhead,40.268318,-105.6502822,20,peak,3856
Sprague Mountain,40.3466511,-105.7363963,20,peak,3870
Knobtop Mountain,40.324309,-105.70168,20,peak,3760
Ptarmigan Point,40.3130581,-105.7024505,18,peak,3768.2
Hallett Peak,40.3030289,-105.6859636,20,peak,3877
Otis Peak,40.2922068,-105.6805611,20,peak,3805
Powell Peak,40.2658181,-105.6647273,18,peak,4016
McHenrys Peak,40.2627626,-105.6575047,18,peak,4036
The Spearhead,40.2552626,-105.6380596,20,peak,3820
Ptarmigan Mountain,40.2569294,-105.72973,18,peak,3764
Eagle Cliff Mountain,40.3583173,-105.5755564,20,peak,2700
Mount Lady Washington,40.2634837,-105.6071714,20,peak,4037
Battle Mountain,40.2781557,-105.5987075,20,peak,3670
Twin Sisters Mountain,40.2888867,-105.5185818,20,peak,3325
Twin Sisters Peaks,40.2888732,-105.5183324,20,peak,3454
Kruger Rock,40.3384026,-105.4856077,20,peak,2842
Panorama Peak,40.3519285,-105.4088827,20,peak,2829
Mount Pisgah,40.3647061,-105.4583292,20,peak,2629
The Notch,40.3683172,-105.4338837,20,peak,2578
Lion Head,40.3094868,-105.4680619,20,peak,2968
Lowdermilk Hill,40.3089363,-105.3931736,20,peak,2226
Kenny Mountain,40.2916512,-105.417217,20,peak,2830
Popes Hill,40.2667347,-105.4093343,20,peak,2401
Pflum Hill,40.2602625,-105.4166617,20,peak,2382
Pierson Mountain,40.3024842,-105.4747194,20,peak,2987
House Rock,40.2649844,-105.4880535,20,peak,2930
Moose Mountain,40.2949846,-105.3633258,20,peak,2456
Round Mountain,40.300818,-105.335269,20,peak,2270
Gray Mountain,40.3035959,-105.2852668,20,peak,1992
Blue Mountain,40.3352623,-105.2810997,20,peak,2406
Bald Mountain,40.3558177,-105.2638765,20,peak,2162
Beech Hill,40.2562966,-105.2839305,20,peak,2003
Rowell Hill,40.2613739,-105.335825,20,peak,2000
Flatiron Mountain,40.366888,-105.226096,20,peak,1885
Twin Mounds,40.3452613,-105.0033113,20,peak,1571
Trail Mountain,40.1880411,-105.9661281,18,peak,2857
Twin Peaks,40.1644301,-105.752508,18,peak,3639
Mount Acoma,40.1758189,-105.7830649,18,peak,3188
Mount Irving Hale,40.1377637,-105.7202843,18,peak,3582
Marten Peak,40.1433191,-105.6830607,18,peak,3668
Cooper Peak,40.150819,-105.6730604,18,peak,3738
Hiamovi Mountain,40.1585968,-105.6958391,18,peak,3779
Watanga Mountain,40.1685967,-105.7133399,18,peak,3763
Ogalalla Peak,40.1702633,-105.6666714,20,peak,3987
Andrews Peak,40.2438828,-105.7104328,18,peak,3822
Mount Alice,40.2391516,-105.6633384,20,peak,4048
Pilot Mountain,40.2313739,-105.6583381,20,peak,3692
The Cleaver,40.2172073,-105.6711164,20,peak,3712
Isolation Peak,40.2027631,-105.6772276,18,peak,3983
Mount Craig,40.2193201,-105.7281147,18,peak,3661
Mount Adams,40.086653,-105.7327844,28,peak,2840
Mahana Peak,40.199152,-105.6669494,20,peak,3831
Saint Vrain Mountain,40.1612637,-105.5857285,20,peak,3703
Meadow Mountain,40.1752782,-105.57057,20,peak,3546
Mount Orton,40.2272071,-105.6197255,20,peak,3575
Mount Meeker,40.2484361,-105.6049383,20,peak,4227
Porphyry Mountain,40.1269299,-105.3880495,20,peak,2543
Bald Mountain,40.1385966,-105.4036057,20,peak,2627
Cannon Mountain,40.1424855,-105.42944,20,peak,2624
Miller Rock,40.1488743,-105.4502741,20,peak,2633
Big John Mountain,40.1958183,-105.4569411,20,peak,2765
South Sheep Mountain,40.2088739,-105.4263843,20,peak,2516
Smithy Mountain,40.2130407,-105.3816603,20,peak,2171
Cook Mountain,40.2179323,-105.4046441,20,peak,2302
North Sheep Mountain,40.2224849,-105.4299956,20,peak,2523
Table Mountain,40.1274855,-105.2563779,20,peak,1713
Fairview Peak,40.1358188,-105.3499925,20,peak,2600
Red Hill,40.1741521,-105.283601,20,peak,2002
Coffintop Mountain,40.1988741,-105.355826,20,peak,2448
Indian Lookout Mountain,40.2205409,-105.2952679,20,peak,1993
Steamboat Mountain,40.2360964,-105.2841562,20,peak,1864
Potato Hill,40.1658187,-105.2408216,20,peak,1641
Table Top Mountain,40.2283183,-105.1685963,20,peak,1648
Rabbit Mountain,40.2360962,-105.197764,20,peak,1827
Granby Mesa,40.0786736,-105.8915884,28,peak,2650
Mount Neva,40.0069313,-105.6883378,29,peak,3908
North Arapaho Peak,40.0266534,-105.6500032,29,peak,4100
Arikaree Peak,40.0467898,-105.6385573,29,peak,4008
Navajo Peak,40.0535975,-105.6466699,29,peak,4087
Apache Peak,40.0585288,-105.6510884,29,peak,4097
Shoshoni Peak,40.0668021,-105.6386961,29,peak,3949
Pawnee Peak,40.0816262,-105.6326959,20,peak,3937
Mount Toll,40.0883194,-105.6336141,20,peak,3942
Paiute Peak,40.098228,-105.6329605,20,peak,3966
Santanta Peak,40.0255423,-105.6900046,28,peak,3649
Mount George,40.0569308,-105.6608371,18,peak,3815
Mount Achonee,40.0726604,-105.6781544,18,peak,3855
Lone Eagle Peak,40.0693983,-105.6606361,18,peak,3660
South Arapaho Peak,40.0196529,-105.6495765,29,peak,4067
Niwot Mountain,40.0588752,-105.5524998,29,peak,3497
Little Pawnee Peak,40.0824862,-105.6213913,29,peak,3753
Mount Audubon,40.0992296,-105.6162598,20,peak,4026
Monument Hill,40.0494304,-105.396938,29,peak,2451
Hoosier Hill,40.0541526,-105.3941608,29,peak,2370
Bighorn Mountain,40.0627637,-105.3874939,29,peak,2555
Burnt Mountain,40.0752638,-105.4713858,20,peak,2820
Nugget Hill,40.0910968,-105.3813826,20,peak,2609
Walker Mountain,40.0985968,-105.4088836,20,peak,2682
Bueno Mountain,40.1227634,-105.4147172,20,peak,2633
Peewink Mountain,40.0038753,-105.4402735,29,peak,2527
Comforter Mountain,40.0027642,-105.4211062,29,peak,2497
Sugarloaf Mountain,40.0266529,-105.4186062,29,peak,2709
Bald Mountain,40.0258196,-105.4522184,29,peak,2782
Logan Hill,40.0316527,-105.382216,29,peak,2372
Dirigo Hill,40.0355416,-105.3794381,29,peak,2252
Golden Age Hill,40.1230411,-105.3655487,20,peak,2551
Bald Mountain,40.0470714,-105.3441039,29,peak,2176
Lee Hill,40.072208,-105.3544372,29,peak,2405
Emancipation Hill,40.0547081,-105.3649931,29,peak,2237
Flagstaff Mountain,40.0016525,-105.3074913,29,peak,2127
Arkansas Mountain,40.0297082,-105.3694378,29,peak,2351
Poorman Hill,40.0305415,-105.3358256,29,peak,1974
Alaska Hill,40.0355416,-105.365271,29,peak,2101
Hoover Hill,40.0038742,-105.1991542,29,peak,1649
Valmont Butte,40.0303129,-105.2135332,29,peak,1635
Haystack Mountain,40.1113743,-105.2241546,20,peak,1690
Gun Barrel Hill,40.0628177,-105.1604074,29,peak,1653
Rampart Hills,37.4308294,-108.1984125,73,peak,2869
Helmet Peak,37.4113861,-108.1272987,73,peak,3643
Red Arrow Dome,37.3863861,-108.151466,73,peak,3076
Snowstorm Peak,37.4389062,-108.0118787,74,peak,3808
Cumberland Mountain,37.4441648,-108.004239,74,peak,3776
Sharkstooth Peak,37.4598457,-108.073171,73,peak,3798
Madden Peak,37.3824978,-108.1084089,73,peak,3552
Star Peak,37.3888867,-108.105631,74,peak,3580
Deadwood Mountain,37.382952,-108.0434387,74,peak,3741
Baker Peak,37.3983319,-108.0317395,74,peak,3640
Lewis Mountain,37.4236095,-108.0089611,74,peak,3732
Gibbs Peak,37.4097197,-108.1022978,73,peak,3739
Burwell Peak,37.4211086,-108.0900751,73,peak,3857
Babcock Peak,37.4286086,-108.0767414,74,peak,3968
Spiller Peak,37.4280666,-108.0870422,73,peak,4000
Burro Mountain,37.4861074,-108.110632,73,peak,3514
Mount Moss,37.4388863,-108.0781305,73,peak,4022
Centennial Peak,37.4471065,-108.0769523,73,peak,3981
Hesperus Mountain,37.4449971,-108.0889642,73,peak,4033
Diorite Peak,37.440019,-108.050777,71,peak,3889
Silver Mountain,37.3869021,-108.029368,74,peak,3776
Battle Rock,37.3355689,-108.8247687,72,peak,1668
Marble Mountain,37.298049,-108.7942675,72,peak,2618
Ute Peak / Wisuv KÃ¡ruv,37.2841604,-108.778711,72,peak,3037
Horse Mountain,37.2658272,-108.7831557,72,peak,2769
Black Mountain,37.2691605,-108.8048235,72,peak,2863
Gifford Knoll,37.3286043,-108.7362096,72,peak,1921
Chapin Mesa,37.2615273,-108.4930265,73,peak,2482
Lone Cone,37.3088842,-108.4261981,73,peak,2522
Navajo Hill,37.2606649,-108.4936488,73,peak,2482
Caviness Mountain,37.3652753,-108.1470213,74,peak,3128
Menefee Peak,37.3263966,-108.2488523,73,peak,2688
Baldy Peak,37.3494437,-108.0372948,74,peak,3307
Twin Buttes,37.2800017,-107.923957,74,peak,2319
Perins Peak,37.2905572,-107.9167346,74,peak,2541
East Toe,37.1956688,-108.7936141,72,peak,2267
West Toe,37.1985887,-108.8312854,72,peak,2158
The Knees,37.2199941,-108.8087119,72,peak,2685
Wildhorse Mesa,37.207773,-108.5609245,73,peak,2263
Wetherill Mesa,37.2007916,-108.5410918,73,peak,2215
Coyote Mesa,37.1880505,-108.6189818,73,peak,2272
East Ute Mesa,37.2172171,-108.6070373,73,peak,2318
Pulpit Rock,37.2463838,-108.6014819,73,peak,2397
Moccasin Head,37.1855518,-108.4350865,73,peak,2139
Whites Mesa,37.2430519,-108.3853628,73,peak,2422
Red Mesa,37.2127786,-108.0528497,741,peak,2303
Bridge Timber Mountain,37.1536128,-107.9945137,741,peak,2515
Basin Mountain,37.2058352,-107.9547907,741,peak,2506
Tanner Mesa,37.0221556,-108.7265981,73,peak,1608
Short Mesa,37.120828,-108.6645382,73,peak,1928
Cowboy Mesa,37.1077727,-108.6420373,73,peak,1892
South Cinder Butte,37.0147228,-108.1286855,741,peak,1916
Cinder Butte,37.0250006,-108.1247964,741,peak,2026
North Cinder Butte,37.0283339,-108.1200739,741,peak,2001
Pinkerton Mesa,37.0500012,-108.0495153,741,peak,1984
Sugarloaf,39.4519287,-106.8955975,44,peak,3401
Red Hill,39.376374,-106.8319839,444,peak,2784
Gyp Hill,39.3783185,-106.7975382,444,peak,2685
Mount Eve,39.4924849,-106.7014243,44,peak,3393
Craig Peak,39.4958185,-106.6378118,44,peak,3619
Mount Thomas,39.4199852,-106.7436475,44,peak,3644
Burnt Mountain,39.3847084,-106.6280889,444,peak,3406
Mount Jackson,39.4852636,-106.5366982,45,peak,4164
Gold Dust Peak,39.4788745,-106.5947552,44,peak,4075
Fools Peak,39.4508191,-106.5997552,444,peak,3926
Eagle Peak,39.4455416,-106.5814213,44,peak,3965
Avalanche Peak,39.4160973,-106.58031,444,peak,3899
Middle Mountain,39.4435974,-106.5244755,45,peak,3760
Savage Peak,39.3808202,-106.5203083,45,peak,3972
Notch Mountain,39.4774862,-106.4605854,45,peak,4030
Mount of the Holy Cross,39.4668216,-106.4817768,45,peak,4270.5
Whitney Peak,39.4327644,-106.4730853,45,peak,4041
Hornsilver Mountain,39.4969307,-106.3250271,45,peak,3512
Resolution Mountain,39.4899796,-106.2945678,45,peak,3537
Ptarmigan Hill,39.4949865,-106.2594702,37,peak,3702
Taylor Hill,39.3855434,-106.2886363,45,peak,3575
Sugarloaf Peak,39.4624869,-106.2480807,37,peak,3823
Mayflower Hill,39.4230432,-106.1422438,37,peak,3763
Elk Mountain,39.4535982,-106.2380803,37,peak,3858
Pearl Peak,39.4435983,-106.2464137,45,peak,3698
Corbett Peak,39.4409366,-106.2312336,37,peak,3835.3
North Sheep Mountain,39.4263763,-106.2333576,45,peak,3785
East Sheep Mountain,39.4166543,-106.2089123,37,peak,3626
Jacque Peak,39.4544315,-106.1975234,37,peak,4001
Tucker Mountain,39.454949,-106.1786259,37,peak,3721
Sheep Mountain,39.414432,-106.2289129,45,peak,3770
Carbonate Hill,39.4049878,-106.1758557,37,peak,3501
Gold Hill,39.4160988,-106.1605776,37,peak,3638
Fletcher Mountain,39.4031418,-106.128923,37,peak,4239
Little Bartlett Mountain,39.3858214,-106.1614107,37,peak,3943
Wheeler Mountain,39.3802338,-106.1358696,37,peak,4154
Bartlett Mountain,39.3769326,-106.1591884,37,peak,4128
Peak 6,39.4936343,-106.1113733,37,peak,3835
Peak 7,39.4783202,-106.1055762,37,peak,3857
Shock Hill,39.4905425,-106.0561302,37,peak,2991
Gibson Hill,39.4958201,-106.0294626,37,peak,3187
Prospect Hill,39.4908202,-106.0136288,37,peak,3259
Barney Ford Hill,39.4722093,-106.0339072,37,peak,3019
Little Mountain,39.4694316,-106.034185,37,peak,3062
Peak 9,39.4516532,-106.105206,37,peak,3992
Peak 10,39.4433096,-106.1027334,37,peak,4150
Crystal Peak,39.434618,-106.1143943,37,peak,4213
Mount Helen,39.4286163,-106.0874822,37,peak,4016
Pacific Peak,39.4230432,-106.1233543,37,peak,4227
Mount Argentine,39.4324876,-106.0150177,37,peak,3479
Quandary Peak,39.397289,-106.106431,37,peak,4349.9
North Star Mountain,39.3779759,-106.0979671,37,peak,4086
Red Mountain,39.3947103,-106.0222402,37,peak,4030
Red Peak,39.3910993,-106.0047397,37,peak,4020
Sloane Peak,39.352485,-106.8908749,47,peak,3199
Ford Peak,39.3438744,-106.7936492,47,peak,3178
Larkspur Mountain,39.2730418,-106.7536477,47,peak,3483
Mount Yeckel,39.2869309,-106.6997573,47,peak,3583
Cyclone Mountain,39.3222084,-106.7039241,47,peak,3187
Sellar Peak,39.3119317,-106.5636425,444,peak,3676
Mount Nast,39.2510985,-106.6119769,47,peak,3796
Wildcat Mountain,39.2794321,-106.5428083,47,peak,3686
Homestake Peak,39.3674875,-106.4147502,45,peak,4028
Galena Mountain,39.3151299,-106.432157,48,peak,3743
Sugarloaf Mountain,39.2605443,-106.4161382,48,peak,3445
Fryer Hill,39.2549951,-106.2728011,49,peak,3199
Yankee Hill,39.2536008,-106.2583563,49,peak,3335
Canterbury Hill,39.2772116,-106.2636345,49,peak,3355
Fairview Hill,39.254434,-106.2786346,49,peak,3174
Missouri Hill,39.3377661,-106.3180809,49,peak,3322
Cooper Hill,39.349155,-106.2839135,49,peak,3578
Buckeye Peak,39.3455441,-106.2536351,49,peak,3923
Mount Zion,39.3113778,-106.275024,49,peak,3698
Clinton Peak,39.3683216,-106.149188,37,peak,4210
Traver Peak,39.3585995,-106.1483547,49,peak,4223
Mount Arkansas,39.3324888,-106.1780774,49,peak,4201
Treasurevault Mountain,39.306378,-106.183633,49,peak,4173
Mosquito Peak,39.300267,-106.1830773,49,peak,4174
Prospect Mountain,39.2788783,-106.237245,49,peak,3844
Mount Buckskin,39.3207654,-106.1510479,49,peak,4205
Loveland Mountain,39.30889,-106.30583,49,peak,3260
Little Ellen Hill,39.2524898,-106.2044663,49,peak,3761
Mount Evans,39.2569342,-106.181688,49,peak,4135
London Mountain,39.2844338,-106.1583544,49,peak,4018
Pennsylvania Mountain,39.2647119,-106.1422428,49,peak,3969
Mount Lincoln,39.3514491,-106.1114834,49,peak,4356.5
Mount Cameron,39.3463953,-106.1187205,49,peak,4335
Mount Bross,39.3353952,-106.1076192,49,peak,4321.6
Mount Silverheels,39.3391555,-106.005295,500,peak,4213
Bald Hill,39.263323,-106.0941862,49,peak,3479
Eagle Mountain,39.2191525,-106.9900448,43,peak,3025
Cozy Point,39.2319305,-106.8847633,43,peak,2589
Burnt Mountain,39.1709907,-106.9230318,43,peak,3391
Baldy Mountain,39.1480431,-106.966433,43,peak,3997
Highland Peak,39.1290563,-106.8770592,43,peak,3757
Red Butte,39.2091534,-106.8428174,43,peak,2521
Red Mountain,39.2208199,-106.8130941,47,peak,3174
Aspen Mountain,39.1760986,-106.8292058,471,peak,2963
Bell Mountain,39.1635989,-106.8194833,471,peak,3232
Bald Knob,39.2230426,-106.7358693,47,peak,3379
Geissler Mountain,39.1449896,-106.5830868,47,peak,4052
Deer Mountain,39.1569342,-106.5214183,48,peak,4174
Mount Champion,39.1322125,-106.521696,48,peak,4154
Twin Mounds,39.2402668,-106.4150269,48,peak,3326
Mount Massive,39.1875396,-106.475619,48,peak,4398
French Mountain,39.1286017,-106.4825282,48,peak,4234
Rock Hill,39.2272124,-106.2528004,49,peak,3355
Iron Hill,39.241101,-106.2622452,49,peak,3352
Carbonate Hill,39.2424898,-106.2758567,49,peak,3245
Long and Derry Hill,39.2174904,-106.2197441,49,peak,3668
Printer Boy Hill,39.2280458,-106.2400223,49,peak,3476
Green Mountain,39.2316569,-106.2286333,49,peak,3580
Whites Hill,39.2361012,-106.2428002,49,peak,3421
Ball Mountain,39.2372123,-106.2216887,49,peak,3748
Breece Hill,39.24249,-106.2372447,49,peak,3557
Rocky Point,39.1786022,-106.2289107,49,peak,3681
Empire Hill,39.1919353,-106.2194662,49,peak,3750
Mount Sheridan,39.2090648,-106.1847373,49,peak,4189
West Sheridan,39.2166571,-106.2025215,49,peak,3932
Mount Sherman,39.2250795,-106.1700671,49,peak,4280
Gemini Peak,39.2347123,-106.1683543,49,peak,4243
East Ball Mountain,39.2383234,-106.2022439,49,peak,3919
West Dyer Mountain,39.2436011,-106.1950215,49,peak,3976
Ptarmigan Peak,39.1505472,-106.1744649,49,peak,4182
Horseshoe Mountain,39.1858243,-106.1852987,49,peak,4235
Finnback Knob,39.1924909,-106.1916878,49,peak,4085
Peerless Mountain,39.1980464,-106.1789097,49,peak,4065
Weston Peak,39.1366586,-106.1639089,49,peak,4135
Lamb Mountain,39.1902688,-106.1214084,49,peak,3785
Sheep Mountain,39.193602,-106.1119638,49,peak,3907
Round Hill,39.1352698,-106.0639065,49,peak,3429
North Maroon Peak,39.0760079,-106.9871449,43,peak,4261
Pyramid Peak,39.0716572,-106.950112,43,peak,4274.7
Keefe Peak,39.0324903,-106.9047643,43,peak,4082
Belleview Mountain,39.0444341,-106.9986567,43,peak,4024
Hunter Peak,39.0530455,-106.9042087,43,peak,4081
Hayden Peak,39.0594343,-106.8519845,43,peak,4133
Ashcroft Mountain,39.0427683,-106.7778151,471,peak,3774
McArthur Mountain,39.0591569,-106.7675369,471,peak,3697
Cathedral Peak,39.0344348,-106.8589292,43,peak,4247
Conundrum Peak,39.015747,-106.862782,43,peak,4271
Castle Peak,39.0097131,-106.861429,43,peak,4352.2
Green Mountain,39.1011011,-106.6539222,471,peak,3384
New York Peak,39.0858372,-106.6933179,471,peak,3901
Gold Hill,39.0458239,-106.7397582,55,peak,3767
Larson Peak,39.0327692,-106.6350326,471,peak,3915
Truro Peak,39.0458693,-106.6317988,471,peak,4047
Independence Mountain,39.0941571,-106.6111432,471,peak,3861
Star Mountain,39.0616582,-106.5333628,48,peak,3938
Ouray Peak,39.0541581,-106.5650304,48,peak,3934
Grizzly Peak,39.0424914,-106.5975314,471,peak,4258
Red Mountain,39.0244362,-106.5916979,48,peak,4090
Middle Mountain,39.0128491,-106.5758908,48,peak,3992
Garfield Peak,39.0303723,-106.5939919,48,peak,4193
Bull Hill,39.0994356,-106.4622498,48,peak,4183
Casco Peak,39.1141575,-106.4939173,48,peak,4237
Mount Elbert,39.1177521,-106.4453787,48,peak,4401.2
Parry Peak,39.0841585,-106.413915,48,peak,3863
La Plata Peak,39.0294519,-106.4729609,48,peak,4372
Monitor Rock,39.0738806,-106.451416,48,peak,3191
Twin Peaks,39.0422147,-106.4233596,48,peak,3957
Quail Mountain,39.0180486,-106.3947476,48,peak,4105
Mount Hope,39.0211039,-106.4197483,48,peak,4249
Black Mountain,39.1036035,-106.2372439,49,peak,3541
South Peak,39.1216588,-106.2061321,49,peak,3919
Black Mountain,39.1058259,-106.0172385,49,peak,3223
Jones Hill,39.042216,-106.0600166,49,peak,3276
Antelope Hill,40.4922034,-104.8444151,94,peak,1507
Point of Rocks,40.48526,-104.3505076,951,peak,1516
Wildcat Mound,40.2899828,-104.8599727,94,peak,1502
The Sand Hills,40.0910939,-104.6424642,94,peak,1521
Riley Mound,40.124705,-104.7463578,94,peak,1583
Bidwell Hill,40.0494279,-104.1013393,99,peak,1486
Bottle Peak,39.9022086,-105.9364031,28,peak,3530
Ptarmigan Peak,39.9060974,-105.9480703,28,peak,3588
Morse Mountain,39.9209524,-105.8975609,28,peak,3155
Sheep Mountain,39.953042,-105.9219582,28,peak,3239
Marker Hill,39.9802647,-105.769174,28,peak,2755
Nebraska Hill,39.8808205,-105.6513915,38,peak,3518
Guinn Mountain,39.9394314,-105.6494472,29,peak,3419
Mount Epworth,39.9224871,-105.6952821,28,peak,3611
Devils Thumb,39.9782974,-105.685071,29,peak,3688
Jumbo Mountain,39.8969316,-105.5544436,38,peak,3038
Park Hill,39.9572092,-105.5366654,29,peak,2688
Buckeye Mountain,39.9220041,-105.5626621,29,peak,3003
Tennessee Mountain,39.9335982,-105.5558327,29,peak,3039
Spencer Mountain,39.9433203,-105.5725,29,peak,2941
Eldorado Mountain,39.957487,-105.5636109,29,peak,2941
Bryan Mountain,39.9405426,-105.6172239,29,peak,3296
Ute Mountain,39.9422092,-105.5841671,29,peak,2982
Bald Mountain,39.9944313,-105.610835,29,peak,3455
Caribou Hill,39.9783202,-105.5886119,29,peak,3187
Klondike Mountain,39.9797091,-105.6036124,29,peak,3277
Mineral Mountain,39.9630426,-105.5838894,29,peak,3109
Boulder County Hill,39.9813758,-105.5658333,29,peak,3109
Pomeroy Mountain,39.9935979,-105.5775004,29,peak,3054
Thorodin Mountain,39.8874871,-105.4255504,38,peak,3195
Starr Peak,39.8935981,-105.4194391,38,peak,3198
Miramonte Mountain,39.8902648,-105.4086055,38,peak,2915
Tungsten Mountain,39.9463759,-105.4866636,29,peak,2721
Hurricane Hill,39.9775588,-105.490478,29,peak,2669
Twin Sisters Peak,39.9727642,-105.3844383,29,peak,2650
Eldorado Mountain,39.9141531,-105.2947131,29,peak,2537
Scar Top Mountain,39.9097088,-105.3269363,29,peak,2675
Crescent Mountain,39.8930422,-105.3138803,29,peak,2724
Coal Creek Peak,39.8883199,-105.2913796,29,peak,2594
Shirttail Peak,39.9341529,-105.2886018,29,peak,2200
South Boulder Peak,39.9537471,-105.2994582,29,peak,2598
Langridge Dyke,39.9513752,-105.3402701,29,peak,2257
Tram Hill,39.9983193,-105.3330478,29,peak,2161
Green Mountain,39.9821525,-105.301699,29,peak,2484
The Flatirons,39.9841526,-105.2941576,29,peak,2181
Bear Peak,39.9602372,-105.2952191,29,peak,2578
Table Mountain,39.9774859,-105.2786016,29,peak,1891
Lake Mesa,39.9485968,-105.1949875,29,peak,1745
Davidson Mesa,39.9310969,-105.1916541,29,peak,1764
Mount Nystrom,39.8088755,-105.901957,28,peak,3856
Saint Louis Peak,39.7949865,-105.9386252,28,peak,3736
Bills Peak,39.8558197,-105.9622375,28,peak,3847
Byers Peak,39.8644308,-105.9472369,28,peak,3906
Red Mountain,39.7588758,-105.8388985,39,peak,3748
Stanley Mountain,39.7858202,-105.8227868,28,peak,3819
Colorado Mines Peak,39.7949563,-105.7640342,28,peak,3777
Vasquez Peak,39.7960979,-105.8550104,39,peak,3944
Twin Cones,39.8372092,-105.7863965,28,peak,3673
Cone Mountain,39.7830428,-105.7408389,38,peak,3730
Red Elephant Hill,39.7769319,-105.6483355,38,peak,3137
Fox Mountain,39.8330429,-105.6436133,38,peak,3332
Mount Eva,39.8274872,-105.7186161,38,peak,4002
Witter Peak,39.8141539,-105.7161159,38,peak,3918
Breckinridge Peak,39.7994316,-105.7241717,38,peak,3921
Mount Flora,39.8049872,-105.7363944,28,peak,4001
Parry Peak,39.8380428,-105.7133381,28,peak,4076
Haystack Mountain,39.8669316,-105.6919485,38,peak,3585
James Peak,39.8522094,-105.6900039,38,peak,4056
Mount Bancroft,39.8375426,-105.7002428,28,peak,4039
Kingston Peak,39.8474873,-105.6508358,38,peak,3698
Bellevue Mountain,39.763599,-105.5422203,38,peak,2954
Alps Hill,39.78721,-105.5419426,38,peak,2971
Quartz Hill,39.7885989,-105.5355535,38,peak,2919
Seaton Mountain,39.7602658,-105.5127747,38,peak,2772
Pewabic Mountain,39.7691546,-105.5288865,38,peak,3023
Bobtail Hill,39.7926277,-105.5065582,38,peak,2725
Mammoth Hill,39.7958211,-105.5074969,38,peak,2701
Central Hill,39.7977656,-105.5111082,38,peak,2640
Nevada Hill,39.7977655,-105.5341646,38,peak,2810
Bates Hill,39.8030434,-105.5055524,38,peak,2596
Winnebago Hill,39.8052656,-105.5119416,38,peak,2675
Aunt Clara Brown Hill,39.8080433,-105.5252754,38,peak,2770
Maryland Mountain,39.8124877,-105.5058303,38,peak,2807
Bald Mountain,39.7922099,-105.5544431,38,peak,3042
Sheridan Hill,39.8202653,-105.6027783,38,peak,3270
California Mountain,39.8683206,-105.5880558,38,peak,3239
Montana Mountain,39.8577651,-105.5983339,38,peak,3334
Blackhawk Peak,39.8408208,-105.5474986,38,peak,3099
Michigan Hill,39.8469318,-105.5641659,38,peak,3175
Arizona Mountain,39.850543,-105.5833333,38,peak,3139
Idaho Hill,39.8613763,-105.5830556,38,peak,3211
Utah Hill,39.8622096,-105.5638882,38,peak,3200
Oregon Hill,39.8591541,-105.5577768,38,peak,3320
Dakota Hill,39.8691541,-105.5536101,38,peak,3330
Fairburn Mountain,39.8594319,-105.5055527,38,peak,3165
Banta Hill,39.7752657,-105.4936075,38,peak,2637
Justice Hill,39.7830435,-105.4897185,38,peak,2661
Signal Hill,39.7913767,-105.4861074,38,peak,2683
Douglas Mountain,39.786932,-105.3766597,38,peak,2927
Black Hawk Mountain,39.7999876,-105.4130497,38,peak,2855
Ely Hill,39.8047098,-105.4202721,38,peak,3048
Smith Hill,39.8024876,-105.4419395,38,peak,2663
Silver Hill,39.8169321,-105.49583,38,peak,2762
Dory Hill,39.8385987,-105.4874964,38,peak,2928
Tremont Mountain,39.8663761,-105.4366617,38,peak,3163
Centennial Cone,39.7524877,-105.3588813,38,peak,2640
Guy Hill,39.7772097,-105.3286028,38,peak,2468
Belcher Hill,39.8216538,-105.3058244,38,peak,2477
Mount Tom,39.8163762,-105.3513813,38,peak,2969
Centralia Mountain,39.8283206,-105.3702707,38,peak,2982
Ralston Buttes,39.8499868,-105.2672122,38,peak,2222
North Table Mountain,39.791376,-105.2008213,38,peak,1999
Inspiration Point,39.786931,-105.05915,38,peak,1651
Mount Trelease,39.6955547,-105.9031271,39,peak,3798
Coon Hill,39.6888756,-105.9452921,28,peak,3876
Hagar Mountain,39.7102645,-105.9211244,28,peak,4020
Pettingell Peak,39.7291534,-105.9047348,28,peak,4104
Grizzly Peak,39.6442877,-105.8487348,39,peak,4064
Grays Peak,39.6338758,-105.8175092,39,peak,4352
Mount Edwards,39.6363759,-105.7938971,37,peak,4218
Kelso Mountain,39.6588759,-105.8002862,39,peak,4016
Baker Mountain,39.6652647,-105.8305652,39,peak,3779
Ganley Mountain,39.6688759,-105.7763962,39,peak,3928
Mount Sniktau,39.6783202,-105.8577885,39,peak,4029
Woods Mountain,39.7304518,-105.83984,39,peak,3944.112
Engelmann Peak,39.7455426,-105.8005636,39,peak,4077
Robeson Peak,39.7335981,-105.8061195,39,peak,3994
Mount Parnassus,39.7199869,-105.822509,39,peak,4139
Bard Peak,39.7202648,-105.8038971,39,peak,4159
Silver Plume Mountain,39.713876,-105.7669512,39,peak,3797
Otter Mountain,39.6277649,-105.7322281,39,peak,3893
Paines Mountain,39.6588761,-105.7263943,39,peak,3674
Little Sugarloaf Peak,39.668043,-105.6908375,39,peak,3452
Sugarloaf Peak,39.6497096,-105.691671,39,peak,3814
Independence Mountain,39.6808207,-105.6858372,39,peak,3492
Alpine Peak,39.6863763,-105.6816704,39,peak,3508
Griffith Mountain,39.7016542,-105.6738922,39,peak,3528
Leavenworth Mountain,39.6849872,-105.7230608,39,peak,3373
Columbia Mountain,39.7480429,-105.7122267,39,peak,3100
Republican Mountain,39.7147094,-105.735561,39,peak,3756
Democrat Mountain,39.720265,-105.7269496,39,peak,3563
Woodchuck Peak,39.7152653,-105.6730587,39,peak,3393
Saxon Mountain,39.7233208,-105.6694474,39,peak,3515
Devils Nose,39.6597101,-105.5955564,39,peak,3365
Goliath Peak,39.6408212,-105.59889,39,peak,3724
Porcupine Hill,39.6447104,-105.549166,39,peak,3112
Captain Mountain,39.6377661,-105.5297209,39,peak,3014
Papoose Mountain,39.6802661,-105.5130532,39,peak,3407
Chief Mountain,39.6755438,-105.5230536,39,peak,3566
Warrior Mountain,39.6755436,-105.5566659,39,peak,3436
Alps Mountain,39.7277656,-105.5975002,39,peak,3220
Flirtation Peak,39.7347103,-105.5202751,39,peak,2515
Mount Susan,39.6366551,-105.4730524,39,peak,2577
Vance Peak,39.6644327,-105.4791634,39,peak,3126
Hicks Mountain,39.6485994,-105.4391624,39,peak,3073
Krinder Peak,39.6480438,-105.3908277,39,peak,2544
Bergen Peak,39.6660992,-105.3952721,39,peak,2957
Shaffer Hill,39.7044324,-105.403327,39,peak,2564
Mount Pence,39.6763771,-105.4261063,39,peak,3014
Snyder Mountain,39.6713771,-105.4319398,39,peak,2996
Mount Judge,39.6674883,-105.4563849,39,peak,3132
MestaaâÄhehe  Mountain,39.6794327,-105.492774,39,peak,3484
Saddleback Mountain,39.7160991,-105.4316615,39,peak,2906
Elephant Butte,39.6349882,-105.3669383,39,peak,2561
Jenkins Peak,39.6485992,-105.3713827,39,peak,2417
Independence Mountain,39.6330436,-105.2958251,391,peak,2539
Lininger Mountain,39.6891544,-105.2552679,391,peak,2360
Genesee Mountain,39.7030434,-105.2936022,391,peak,2523
Bald Mountain,39.7244321,-105.3094358,38,peak,2436
Mount Falcon,39.6294064,-105.2305154,391,peak,2390
Mount Glennon,39.6434606,-105.1843248,391,peak,1963
Mount Carbon,39.6488766,-105.13582,391,peak,1761
Green Mountain,39.7010128,-105.177821,391,peak,2091
Mount Morrison,39.6691544,-105.2199891,391,peak,2401
Mount Zion,39.7436821,-105.2418881,38,peak,2147
Colorow Hill,39.7299876,-105.249434,38,peak,2306
Lookout Mountain,39.7290321,-105.2374315,38,peak,2260
Ruby Hill,39.6835984,-105.0072046,391,peak,1644
Wise Mountain,39.5114692,-105.9047616,37,peak,3668
Independence Mountain,39.5819312,-105.910291,37,peak,3828
Bear Mountain,39.572209,-105.9036242,37,peak,3835
Porcupine Peak,39.6169312,-105.8986238,37,peak,3596
Handcart Peak,39.5241536,-105.8452886,37,peak,3809
Radical Hill,39.5358202,-105.8655672,37,peak,3767
Teller Mountain,39.536098,-105.8566779,37,peak,3848
Red Cone,39.5269495,-105.8220809,46,peak,3884
Geneva Peak,39.5538855,-105.8234666,46,peak,4037
Sullivan Mountain,39.5630425,-105.8286212,46,peak,3999
Silver Mountain,39.5827647,-105.820843,37,peak,3919
Revenue Mountain,39.5833202,-105.8083425,46,peak,3928
Santa Fe Peak,39.5690089,-105.8371975,37,peak,4019
Tiptop Peak,39.5877647,-105.8522331,37,peak,3668
Morgan Peak,39.5866536,-105.8452884,37,peak,3791
Brittle Silver Mountain,39.5927647,-105.8222319,37,peak,3718
Decatur Mountain,39.5947091,-105.7950085,46,peak,3930
Cooper Mountain,39.6124869,-105.8275097,37,peak,3896
Ruby Mountain,39.6163758,-105.8144537,37,peak,4032
Mount Wilcox,39.6166537,-105.7577846,39,peak,4012
Argentine Peak,39.6122092,-105.77723,37,peak,4186
Square Top Mountain,39.5932199,-105.764909,46,peak,4201
Arrowhead Mountain,39.513043,-105.6913941,46,peak,3418
Kataka Mountain,39.529432,-105.6611153,46,peak,3796
Spearhead Mountain,39.5108209,-105.6652821,46,peak,3429
Epaulet Mountain,39.5705434,-105.6319473,46,peak,4126
Tahana Mountain,39.5449877,-105.645559,46,peak,3651
Geneva Mountain,39.5505429,-105.6933384,46,peak,3759
Mount Bierstadt,39.5826232,-105.6687744,46,peak,4287
Gray Wolf Mountain,39.6172098,-105.6608368,39,peak,4148
Mount Warren,39.6052655,-105.6336138,39,peak,4052
Mount Spalding,39.5995765,-105.6564393,39,peak,4222
Rosedale Peak,39.5585995,-105.5405554,39,peak,3597
Rosalie Peak,39.5560991,-105.6063909,46,peak,4138
Rogers Peak,39.6158211,-105.6177797,39,peak,4061
Meridian Hill,39.5563776,-105.486387,39,peak,3503
Shadow Mountain,39.5602664,-105.4555527,46,peak,3234
Black Mountain,39.5319295,-105.3981899,46,peak,3271
Lions Head,39.5027665,-105.4205523,46,peak,2795
Legault Mountain,39.5335994,-105.2649917,461,peak,2757
Berrian Mountain,39.5549883,-105.2922146,391,peak,2785
Doublehead Mountain,39.5624882,-105.2611025,391,peak,2711
Evergreen Mountain,39.6105438,-105.3608272,39,peak,2599
Kinney Peak,39.6052659,-105.3047145,391,peak,2469
Lone Peak,39.6044324,-105.2636022,391,peak,2518
Huebner Peak,39.5052661,-105.2258241,461,peak,2633
Crow Hill,39.5244327,-105.2447134,461,peak,2638
High Peak,39.5269327,-105.2302685,461,peak,2611
Yegge Peak,39.5408215,-105.2280461,461,peak,2452
Sampson Mountain,39.5022106,-105.2041567,461,peak,2524
Pyramid Peak,39.5299883,-105.1913783,461,peak,2248
Wilds Peak,39.5288772,-105.1788779,461,peak,2282
Fourth of July Mountain,39.5363771,-105.2091566,461,peak,2302
Plymouth Mountain,39.5297105,-105.1572106,461,peak,2217
Warren Peak,39.5052662,-105.151655,461,peak,2429
Deer Mountain,39.542766,-105.1927671,391,peak,2223
Bald Mountain,39.5505438,-105.2169345,461,peak,2356
Mount Lindo,39.6094323,-105.2108227,391,peak,2378
Haystack Butte,40.9469331,-102.8793625,90,peak,1271
Twin Buttes,40.9074904,-102.7726927,90,peak,1178
Flat Top,40.9494345,-102.6871359,90,peak,1207
Marks Butte,40.8155477,-102.5071325,93,peak,1242
North Reiradon Hill,40.5908223,-103.0402065,98,peak,1375
South Reiradon Hill,40.5802668,-103.036318,97,peak,1369
Eagle Point Hill,40.5033206,-103.0946557,97,peak,1405
Minter Hill,40.4244294,-103.9518956,95,peak,1458
High Hill,40.4494296,-103.8946738,95,peak,1403
Fry Hill,40.390817,-103.8763401,95,peak,1466
Judson Hills,40.4497078,-103.9502291,95,peak,1502
Twin Hills,40.4183168,-103.7621742,95,peak,1453
Glacken Hill,40.4658215,-102.9971549,98,peak,1391
Fiddler Peak,40.4744348,-102.3771353,98,peak,1226
Old Baldy,40.3405439,-102.4604747,98,peak,1240
Round Top,40.1705372,-103.6943936,99,peak,1377
Fremont Butte,40.2488687,-103.3088299,97,peak,1432
Mount Yuma,40.0094328,-102.5940948,101,peak,1266
Pawnee Hill,39.8796844,-102.1840708,102,peak,1108
Peate Hill,39.8373254,-102.182033,102,peak,1156
Mineral Hill,39.4883307,-105.9938349,37,peak,3291
Humbug Hill,39.4924869,-105.9714049,37,peak,3383
Glacier Peak,39.4841537,-105.8836238,500,peak,3920
Mount Guyot,39.4588762,-105.9375148,37,peak,4053
Farncomb Hill,39.4822093,-105.9558488,37,peak,3460
Bald Mountain,39.4448809,-105.9705017,37,peak,4175
Boreas Mountain,39.4069323,-105.9489044,500,peak,3977
Whale Peak,39.4944313,-105.8664007,500,peak,3979
Jefferson Hill,39.4235986,-105.834178,500,peak,3186
Mount Logan,39.4958212,-105.6313923,46,peak,3922
North Twin Cone Peak,39.4284362,-105.7023661,501,peak,3754
Mount Blaine,39.4299879,-105.6805615,501,peak,3748
South Twin Cone Peak,39.4152658,-105.6825061,501,peak,3750
Kenosha Mountains,39.3680444,-105.6052819,501,peak,3787
Derringer Peak,39.4516553,-105.5644463,46,peak,2828
Split Rock,39.4394334,-105.5247229,46,peak,3006
Shawnee Peak,39.3966554,-105.596948,501,peak,3624
Insmont Hill,39.3869338,-105.4522212,501,peak,2491
Mount Bailey,39.415267,-105.4597211,461,peak,2767
Lone Rock,39.4572112,-105.4308309,46,peak,2800
Crow Hill,39.431378,-105.4566653,461,peak,2648
Riley Peak,39.4841552,-105.2808261,461,peak,2854
Cathedral Spires,39.4224889,-105.2561039,461,peak,2602
Banner Peak,39.4197112,-105.2955495,461,peak,2574
Sheep Mountain,39.4241557,-105.1713787,461,peak,2415
Turkshead Peak,39.4424889,-105.1363773,461,peak,2356
Raleigh Peak,39.395267,-105.2152694,501,peak,2487
Cann Hill,39.4236003,-105.0152621,51,peak,1858
Carpenter Peak,39.4302501,-105.0847879,51,peak,2173
Wildcat Mountain,39.4047116,-105.0216514,51,peak,2010
Thomas Hill,39.3922116,-105.0663752,51,peak,2359
Bennett Mountain,39.3863783,-105.1241551,51,peak,2445
Little Baldy Mountain,39.3285999,-105.9480714,500,peak,3703
Palmer Peak,39.3202668,-105.9900171,500,peak,3806
Iron Mountain,39.3683217,-105.9850168,500,peak,3485
Fremont Knoll,39.3647104,-105.8747355,500,peak,2952
Mud Hill,39.2971391,-105.7237503,50,peak,2831
Observatory Rock,39.2630444,-105.6963976,50,peak,3056
North Tarryall Peak,39.3119335,-105.6105606,501,peak,3629
Topaz Mountain,39.2849894,-105.5816711,501,peak,3584
Windy Peak,39.3024898,-105.4397218,501,peak,3636
Buffalo Peak,39.2755456,-105.3680534,501,peak,3526
Little Scraggy Peak,39.314712,-105.2752724,501,peak,2798
Green Mountain,39.3052676,-105.3002732,501,peak,3174
Redskin Mountain,39.3588784,-105.3638856,501,peak,2670
Campbell Mountain,39.2833236,-105.1302674,51,peak,2707
Skull Rock,39.2616569,-105.2316605,501,peak,2172
Noddle Heads,39.3336009,-105.1533234,51,peak,2463
Long Scraggy Peak,39.3434447,-105.2020563,501,peak,2681
Nighthawk Hill,39.3530453,-105.1455451,51,peak,2135
Bear Mountain,39.3688784,-105.1444338,51,peak,2345
Elephant Rock,39.3661008,-105.0419301,51,peak,2362
Bee Rock,39.3722119,-105.0222072,51,peak,2046
Devils Head,39.2602683,-105.1010998,51,peak,2936
Gott Mountain,39.3330456,-105.0280409,51,peak,2268
Sunset Point,39.3486009,-105.0877652,51,peak,2440
Logan Hill,39.1384117,-105.7552639,50,peak,2996
Eagle Rock,39.2241562,-105.6638963,50,peak,2939
Baker Mountain,39.2191561,-105.6866748,50,peak,2899
Farnum Peak,39.1669349,-105.560003,50,peak,3466
Sugarloaf Mountain,39.2286008,-105.5894493,501,peak,3023
Bison Mountain,39.2380457,-105.4980573,501,peak,3777
Bradley Peak,39.1708239,-105.4944454,501,peak,2852
South Tarryall Peak,39.1549908,-105.4411104,501,peak,3417
McCurdy Mountain,39.2194347,-105.468334,501,peak,3702
Sheeprock,39.1652686,-105.3305516,501,peak,2653
Cheesman Mountain,39.234157,-105.2705507,501,peak,2391
Thunder Butte,39.1716576,-105.1974917,51,peak,2991
Sheep Nose,39.1411022,-105.194158,51,peak,2692
Bell Rock,39.1572132,-105.1744353,51,peak,2472
Turtle Mountain,39.2133241,-105.120267,51,peak,2710
Dakan Mountain,39.2374908,-105.0663762,51,peak,2797
Chimney Peak,39.1324914,-105.0038734,51,peak,2763
Sulphur Mountain,39.0330476,-105.6416707,581,peak,2844
Badger Mountain,39.0488805,-105.512778,50,peak,3434
Pulver Mountain,39.011103,-105.5172222,581,peak,3206
Martlnad Peak,39.1008244,-105.5741694,50,peak,3438
Schoolmarm Mountain,39.1152688,-105.5941703,50,peak,3442
Rishaberger Mountain,39.1049911,-105.6122263,50,peak,3121
Round Mountain,39.0411027,-105.4477759,50,peak,2752
Tappan Mountain,39.0733247,-105.3911079,501,peak,2724
Pilot Peak,39.11638,-105.3936085,501,peak,3229
Cedar Mountain,39.1159346,-105.2734249,511,peak,2724
Hackett Mountain,39.0844357,-105.2869382,511,peak,2873
Signal Butte,39.0584819,-105.2227869,511,peak,2869
Turkey Rock,39.1138801,-105.2394371,511,peak,2627
Soldier Mountain,39.0599917,-105.0505415,511,peak,2798
Mount Deception,39.0986026,-105.0594308,511,peak,2849
Wild Oat Mesa,37.3920109,-107.9778499,74,peak,2920
Cape Horn,37.3994442,-107.9192357,74,peak,3161
Red Hill,37.4205548,-107.9442367,74,peak,3235
Sliderock Mountain,37.4202846,-106.9222639,78,peak,2705
Monument Hill,37.4394433,-107.9445147,74,peak,3305
Spud Hill,37.4544449,-107.7692311,75,peak,2439
West Mountain,37.4502792,-107.5997814,751,peak,3528
Middle Mountain,37.4697237,-107.5081121,751,peak,3225
Slide Mountain,37.432502,-107.4156091,77,peak,3382
Grassy Point,37.4383352,-107.481722,751,peak,3137
Granite Peak,37.4688907,-107.4114428,751,peak,3693
Three Sisters Peaks,37.4861128,-107.3994984,751,peak,3552
Runlett Peak,37.4738904,-107.4789446,751,peak,3432
The Ant Hill,37.3830955,-107.1559758,77,peak,2525
O'Neal Hill,37.4294484,-107.1408796,77,peak,2747
Rock Mountain,37.4872263,-107.132825,77,peak,3101
Bear Mountain,37.4369465,-107.3625521,77,peak,3189
Cade Mountain,37.3811162,-107.0675433,77,peak,2856
Black Mountain,37.440838,-107.0947676,77,peak,3317
Pagosa Peak,37.4436162,-107.0669891,77,peak,3827
Eagle Mountain,37.4383392,-107.0150432,78,peak,3586
Davis Mountain,37.4694493,-107.0806011,77,peak,3591
Spruce Mountain,37.4758383,-107.0775456,77,peak,3529
The Keyhole,37.4938932,-107.1192137,77,peak,3231
Quien Sabe Mountain,37.4041725,-107.0214315,78,peak,3126
Cherry Cairn,37.4677835,-107.0319887,78,peak,3809
Smelter Mountain,37.2622244,-107.9061786,741,peak,2354
Baldy Mountain,37.3636129,-107.7831199,75,peak,3005
Animas City Mountain,37.3275015,-107.8697891,74,peak,2490
Rabbit Mountain,37.2716701,-107.6878382,75,peak,2340
Rules Hill,37.3069474,-107.6886719,75,peak,2507
Vosburg Pike,37.328336,-107.6883943,75,peak,2687
Ludwig Mountain,37.3155585,-107.5928352,751,peak,2496
Shaefer Mountain,37.3200029,-107.5442224,751,peak,2625
Severn Peak,37.306392,-107.51311,751,peak,2465
Indian Mountain,37.3711136,-107.4789432,751,peak,3191
Baldy Mountain,37.349447,-107.4200523,77,peak,3088
Sheep Mountain,37.3691692,-107.3831071,77,peak,2667
Mule Mountain,37.2597252,-107.3117142,77,peak,2717
Horse Mountain,37.308336,-107.2867143,77,peak,3030
Devil Mountain,37.2841695,-107.2761581,77,peak,3030
Chris Mountain,37.2950035,-107.1878224,77,peak,2705
Brockover Mesa,37.2866704,-107.1678218,77,peak,2504
Middle Mountain,37.3377806,-107.234769,77,peak,2957
Flatiron Mesa,37.3388924,-107.1811566,77,peak,2455
Oakbrush Hill,37.3030602,-107.0961536,77,peak,2455
Coyote Hill,37.3305601,-107.1075433,77,peak,2575
Sunnyside Mesa,37.1419468,-107.8747882,75,peak,1911
Arrowhead Hill,37.2341704,-107.6145019,75,peak,2191
Pargin Mountain,37.2011149,-107.4303283,771,peak,2724
Chimney Rock,37.194448,-107.3011576,771,peak,2398
Long Mountain,37.0744464,-107.9242335,741,peak,2153
Round Top Mountain,37.0869464,-107.9297893,741,peak,2234
Round Top,37.1130573,-107.9992357,741,peak,2145
Bondad Hill,37.0702801,-107.8714544,75,peak,1925
Rattlesnake Hill,37.1013925,-107.635613,75,peak,2039
Indian Mesa,37.0166708,-107.5828323,751,peak,2057
Tiffany Peak,37.0116711,-107.552553,751,peak,2110
Tunnel Hill,37.0622266,-107.5369972,751,peak,2027
Haystack Mountain,37.0416715,-107.4650498,771,peak,2009
Piedra Peak Number 2,37.0736158,-107.4469941,771,peak,2481
Piedra Peak,37.089449,-107.4561612,771,peak,2581
Cerro del Zopilote,37.0619495,-107.2747665,771,peak,2416
Sandoval Mesa,37.1038935,-107.3242128,771,peak,2588
Archuleta Mesa,37.023343,-106.9633702,78,peak,2809
Billy Goat Point,37.2127826,-107.1194861,771,peak,2331
Montezuma Mesa,37.066119,-107.0558721,78,peak,2361
Pordonia Point,37.2038941,-107.0975409,771,peak,2562
Oakbrush Hill,37.18445,-107.090874,771,peak,2627
Monte Camado,37.0408393,-107.2150424,771,peak,2246
Racoon Knob,39.4527669,-104.9308146,51,peak,2021
Cherokee Mountain,39.4499891,-104.9366481,51,peak,2026
Dawson Butte,39.3002682,-104.9374823,51,peak,2278
Rocky Peak,39.3022083,-104.04607,105,peak,1825
Haystack Peaks,38.8550695,-109.0043858,40,peak,2529
Purdy Mesa,39.964694,-108.2864762,22,peak,1978
Gibbler Mountain,38.8270359,-108.5175525,62,peak,2325
Horse Mesa,38.7940845,-108.4942441,62,peak,2294
Petrie Mesa,38.837483,-108.1070164,411,peak,1956
Negro Mesa,38.8505384,-108.0884046,411,peak,1931
January Mesa,38.8677602,-108.0570145,411,peak,1923
Beebe Mesa,38.8663714,-108.0692372,411,peak,1986
Adobe Buttes,38.8366494,-108.0214569,411,peak,1698
The Palisade,38.7093527,-108.9745499,40,peak,2009
Bull Hill,38.6771449,-108.8930654,61,peak,2352
Pine Mountain,38.7005662,-108.8581751,61,peak,2412
Wolf Hill,38.69304,-108.7539893,61,peak,2818
Sawmill Mesa,38.4765607,-108.4137799,62,peak,2607
Cone Mountain,38.5631328,-108.9964972,60,peak,2402
Potato Mountain,38.604986,-108.8223247,61,peak,2133
Little Round Mountain,38.5024878,-108.7412101,61,peak,1982
Uncompahgre Butte,38.5766535,-108.6475954,62,peak,2945
Monument Hill,38.5255434,-108.611205,62,peak,2898
Long Point Mountain,38.5508207,-108.5978711,62,peak,2856
Snipe Mountain,38.6077642,-108.6123163,62,peak,2844
Brush Mountain,38.623042,-108.550647,62,peak,2715
Camel Back,38.5535975,-108.2000757,62,peak,2102
Burro Creek Mesa,38.4116556,-108.6575954,61,peak,1899
Blue Springs Point,38.4088301,-108.6923104,61,peak,1794
Hog Point,38.4199887,-108.715931,61,peak,1778
Windy Point,38.4581435,-108.5382955,62,peak,2915
Spruce Mountain,38.4341557,-108.5031451,61,peak,2964
PiÃ±on Mountain,38.4149891,-108.5289794,61,peak,2400
Round Mountain,38.4055449,-108.5025896,61,peak,2465
Starvation Point,38.3894536,-108.4431012,61,peak,2355
Oak Hill,38.4044321,-108.1775753,62,peak,2578
Nyswonger Mesa,38.3155453,-108.9231595,70,peak,2043
Skein Mesa,38.2580459,-108.8709353,70,peak,2172
Reade Hill,38.2988775,-108.2117442,61,peak,2965
Anderson Mesa,38.177491,-108.9256596,70,peak,1924
The Hat,38.1933242,-108.9551049,70,peak,1898
Buck Mesa,38.2105463,-108.9428822,70,peak,1766
Radium Mountain,38.1533245,-108.8248232,70,peak,2171
Wedding Bell Mountain,38.1499912,-108.8520463,70,peak,2185
Peters Knob,38.17138,-108.8581575,70,peak,1861
Wild Steer Mesa,38.2111018,-108.8603796,70,peak,2150
Patterson Mountain,38.2374893,-108.2770253,61,peak,2417
Coventry Hill,38.1452684,-108.3723069,70,peak,2037
Wrights Mesa,38.1258238,-108.2923037,70,peak,2146
Coyote Knob,38.2269335,-108.0772931,61,peak,2522
Steamboat Hill,38.1099916,-108.9028815,70,peak,2154
Oak Hill,38.0463802,-108.2592467,70,peak,2590
Little Baldy,38.0261026,-108.237579,70,peak,2589
Bluenose Mesa,38.9210926,-107.9795115,411,peak,1925
Cedar Mesa,38.9010933,-107.8870083,52,peak,2065
Spaulding Peak,38.9783146,-107.8564521,52,peak,2619
Jumbo Mountain,38.8888774,-107.5256118,53,peak,2488
Redtop Peak,38.8874516,-107.5678629,53,peak,1917
Fire Mountain,38.9716552,-107.4817218,521,peak,2599
The Pines,38.8861784,-107.3726192,53,peak,2560
Goose Hill,38.9774901,-107.2897731,521,peak,2425
Prospect Point,38.9472133,-107.2064385,521,peak,2638
Ruby Peak,38.8972143,-107.1275486,521,peak,3853
Purple Peak,38.9126352,-107.1203767,521,peak,3887
Mount Owen,38.9091586,-107.1250485,521,peak,3969
Carfield Peak,38.9152696,-107.096159,55,peak,3674
Peeler Peak,38.9116586,-107.0861588,55,peak,3710
Mount Emmons,38.8864366,-107.05117,55,peak,3762
Afley Peak,38.9213627,-107.1190512,55,peak,3843
Oh-Be-Joyful Peak,38.9299916,-107.1167148,55,peak,3769
Hancock Peak,38.9349915,-107.1167147,55,peak,3774
Schuylkill Mountain,38.9402692,-107.0883808,55,peak,3695
Richmond Mountain,38.9516579,-107.1122701,55,peak,3796
Cascade Mountain,38.9616578,-107.0983809,55,peak,3563
Mineral Point,38.9708242,-107.1011586,55,peak,3800
Augusta Mountain,38.9722131,-107.1061587,55,peak,3824
Purple Mountain,38.9916573,-107.1033807,55,peak,3946
Cinnamon Mountain,38.9947128,-107.0706024,55,peak,3747
Mount Baldy,38.9936018,-107.0461576,43,peak,3898
Gothic Mountain,38.9563802,-107.0106015,55,peak,3837
Antelope Hill,38.8263719,-107.9331205,52,peak,1785
Shamrock Mesa,38.8213723,-107.8547847,52,peak,1726
Duke Hill,38.8013735,-107.7270033,52,peak,1660
Knob Hill,38.8033181,-107.7195032,52,peak,1659
Landsend Peak,38.7708224,-107.5517237,53,peak,3297
Mount Lamborn,38.803045,-107.5228343,53,peak,3474
Elephant Hill,38.8513773,-107.5442233,53,peak,2149
Cedar Hill,38.8594314,-107.5975573,53,peak,1881
Browning Mountain,38.7635615,-107.4201524,53,peak,2885
Coal Mountain,38.7869348,-107.4836673,53,peak,3567
Three Knobs,38.7694197,-107.4032319,53,peak,3007
Mount Gunnison,38.8121353,-107.3826472,53,peak,3860
Twin Knobs,38.7951805,-107.4591893,53,peak,2695
West Beckwith Mountain,38.8601064,-107.2739786,53,peak,3670
Sams Peak,38.7694374,-107.3533882,53,peak,2677
East Beckwith Mountain,38.846319,-107.2231634,53,peak,3772
Carbon Peak,38.7941603,-107.0431029,54,peak,3679
Ohio Peak,38.8174935,-107.1214382,54,peak,3730
North Saddle Peak,38.7119339,-107.525057,53,peak,2955
South Saddle Peak,38.7052674,-107.5158903,53,peak,3053
Bald Mountain,38.6611024,-107.4103338,63,peak,3592
The Knob,38.6952693,-107.4161671,53,peak,2969
Tater Heap,38.7264869,-107.4237703,53,peak,3347
Mount Guero,38.7197146,-107.3861667,53,peak,3674
Little Sand Mountain,38.7394351,-107.4814453,53,peak,2930
Bonfisk Peak,38.6459457,-107.2694049,54,peak,3523
Porcupine Cone,38.7164549,-107.3142169,53,peak,3486
South Baldy Mountain,38.6655332,-107.1971125,54,peak,3775
Middle Baldy Mountain,38.6782587,-107.1917852,54,peak,3838
Middle Baldy,38.6885643,-107.1950452,54,peak,3872
North Baldy Mountain,38.7002723,-107.187552,54,peak,3917
West Elk Peak,38.7179023,-107.1993814,54,peak,3975
Signal Hill,38.5311086,-107.691878,64,peak,2676
Poison Spring Hill,38.5555581,-107.6431324,63,peak,2754
Grizzly Ridge,38.5747597,-107.6765177,63,peak,2631
Big Hill,38.5377655,-107.5436692,63,peak,2494
Cathedral Peak,38.5866552,-107.5125576,63,peak,2929
Pearson Point,38.5399922,-107.2986662,54,peak,2838
McIntosh Mountain,38.5749917,-107.0144908,54,peak,2905
Black Mountain,37.8363878,-107.2258869,76,peak,3616
Hermit Peak,37.8049991,-107.2442206,76,peak,3315
Minnie Mountain,37.809166,-107.1847746,76,peak,3271
Shotgun Mountain,37.7669441,-107.1961638,76,peak,3272
Bristol Head,37.7933334,-107.0550486,76,peak,3875
Baldy Cinco,37.955553,-107.1031057,66,peak,4076
Snow Mesa,37.9286088,-107.0694936,76,peak,3746
Table Mountain,37.8980539,-107.050882,76,peak,3915
Horsethief Mountain,37.9072204,-107.2022752,76,peak,3376
Gray Head,37.9913814,-107.9731221,70,peak,3346
Whipple Mountain,37.9947149,-107.9342321,70,peak,3636
Hawn Mountain,37.9841595,-107.9250653,70,peak,3323
Diamond Hill,37.9374932,-107.9531223,70,peak,3079
Sunshine Point,37.9349935,-107.9111768,70,peak,2851
Sunshine Mesa,37.8830495,-107.9317336,70,peak,3075
Campbell Peak,37.9872153,-107.8550634,70,peak,4022
Dallas Peak,37.9880489,-107.8236738,70,peak,4168
Gilpin Peak,37.9866601,-107.7931174,65,peak,4162
Greenback Mountain,37.9688825,-107.7950621,70,peak,3955
Stony Mountain,37.9822158,-107.7714502,65,peak,3871
Mount Emma,37.9749936,-107.7903397,70,peak,4138
Mendota Peak,37.9611049,-107.7783951,65,peak,4039
Coonskin Mountain,37.9324939,-107.8328413,70,peak,3222
Ajax Peak,37.9286055,-107.7556171,70,peak,3895
Turkey Creek Mesa,37.8916609,-107.8622871,70,peak,3309
Bald Mountain,37.8963832,-107.846731,70,peak,3612
Gold Hill,37.8941611,-107.8233971,70,peak,3876
Palmyra Peak,37.8836056,-107.8292307,70,peak,4039
Wasatch Mountain,37.8899946,-107.7958964,70,peak,4127
Ballard Mountain,37.9119388,-107.7903404,70,peak,3907
Ingram Peak,37.9149945,-107.7583951,70,peak,3823
La Junta Peak,37.896939,-107.7870072,70,peak,4098
Three Needles,37.8899949,-107.7561731,70,peak,4104
Potosi Peak,37.9897158,-107.7495051,65,peak,4195
Chicago Peak,37.9427721,-107.7442278,70,peak,4067
Telluride Peak,37.9247062,-107.7358582,70,peak,4117
Brown Mountain,37.9208287,-107.6378379,74,peak,4062
United States Mountain,37.9566608,-107.7392276,65,peak,3967
Hayden Mountain,37.9544389,-107.7025606,65,peak,4028
Abrams Mountain,37.9622171,-107.6406155,74,peak,3905
Trico Peak,37.9055504,-107.7383948,70,peak,4054
Red Mountain Number 2,37.912773,-107.6825607,65,peak,3721
Red Mountain Number 3,37.9014863,-107.6891546,65,peak,3925
McMillan Peak,37.8802733,-107.6897833,74,peak,3903
Red Mountain Number 1,37.9102732,-107.6622828,65,peak,3832
Engineer Mountain,37.9702731,-107.5883928,65,peak,4026
Dolly Varden Mountain,37.9922177,-107.5428368,66,peak,3941
Gravel Mountain,37.959718,-107.5411702,66,peak,4136
Houghton Mountain,37.9405513,-107.5864484,74,peak,3974
Tuttle Mountain,37.9338844,-107.6122821,74,peak,3999
Seigal Mountain,37.957192,-107.5637434,74,peak,4039
Denver Hill,37.9513845,-107.578115,74,peak,3747
Cinnamon Mountain,37.9297183,-107.5458925,75,peak,4063
Wood Mountain,37.947496,-107.537836,66,peak,4158
Edith Mountain,37.9424963,-107.5128365,66,peak,3846
Hurricane Peak,37.9147179,-107.6214489,74,peak,4095
California Mountain,37.9182539,-107.6039062,74,peak,4018
Hanson Peak,37.9080514,-107.6097822,74,peak,4100
Bonita Peak,37.8969402,-107.623949,74,peak,4043
Emery Peak,37.8883293,-107.6211713,74,peak,4053
Treasure Mountain,37.9147182,-107.5836708,74,peak,3908
Eureka Mountain,37.8986073,-107.5825596,74,peak,3940
Handies Peak,37.9129884,-107.504452,66,peak,4284.8
Jones Mountain,37.8965475,-107.5265406,75,peak,4215
Niagara Peak,37.889343,-107.5335375,75,peak,4202
Crown Mountain,37.8799008,-107.5367353,75,peak,4120
Whitecross Mountain,37.9305521,-107.4931141,66,peak,4112
Seventyone Mountain,37.9617742,-107.2570309,66,peak,3678
Grassy Mountain,37.956664,-107.3442226,66,peak,3893
Wilson Peak,37.8604304,-107.984691,70,peak,4274
Gladstone Peak,37.8449792,-107.982947,70,peak,4230
Mount Wilson,37.8392109,-107.9916312,71,peak,4344
Sunshine Mountain,37.8583249,-107.9339437,70,peak,3943
Lizard Head,37.8358276,-107.9506236,70,peak,3961
San Bernardo Mountain,37.8472166,-107.9086779,70,peak,3608
Cross Mountain,37.8321297,-107.9689626,71,peak,3871
Black Face,37.8238207,-107.9213397,70,peak,3682
Sheep Mountain,37.7852731,-107.8861781,71,peak,4016
Yellow Mountain,37.834995,-107.8495097,70,peak,3924
Lookout Peak,37.8622173,-107.7803407,70,peak,4151
South Lookout Peak,37.8372175,-107.7903412,70,peak,4032
Pilot Knob,37.8116621,-107.8289538,70,peak,4170
Golden Horn,37.8047177,-107.8247871,70,peak,4188
Vermilion Peak,37.7991623,-107.8283984,70,peak,4212
Fuller Peak,37.7958289,-107.821176,74,peak,4177
Ulysses S Grant Peak,37.8244398,-107.8070086,74,peak,4180
San Miguel Peak,37.7791622,-107.864233,71,peak,4186
Grizzly Peak,37.7561069,-107.862011,71,peak,4186
Beattie Peak,37.7899957,-107.8247873,74,peak,4056
Rolling Mountain,37.7661071,-107.8261765,74,peak,4171
Twin Sisters,37.770274,-107.7886754,74,peak,3968
Ohio Peak,37.860829,-107.6986725,74,peak,3856
Storm Peak,37.8591628,-107.6475606,74,peak,4086
Bear Mountain,37.7947185,-107.7328403,74,peak,3951
Anvil Mountain,37.8377737,-107.707284,74,peak,3818
Kendall Mountain,37.7933304,-107.6289496,75,peak,4046
Sultan Mountain,37.7858299,-107.703951,74,peak,4062
Grand Turk,37.7766635,-107.6956176,74,peak,4008
Tower Mountain,37.8572185,-107.6231159,74,peak,4119
Dome Mountain,37.8608298,-107.60006,74,peak,4078
Macomber Peak,37.8449965,-107.6222827,74,peak,3909
Middle Mountain,37.8480526,-107.5450592,75,peak,3953
King Solomon Mountain,37.8077749,-107.593949,75,peak,4014
Hazelton Mountain,37.8016637,-107.6225606,75,peak,3800
Round Mountain,37.7958304,-107.6133939,75,peak,3915
Little Giant Peak,37.7963861,-107.5989491,75,peak,4075
Galena Mountain,37.8280527,-107.5617262,75,peak,4033
Green Mountain,37.7944419,-107.5617263,75,peak,3977
Canby Mountain,37.799442,-107.5458927,75,peak,4102
Kendall Peak,37.7872194,-107.618394,75,peak,4103
Sugarloaf,37.7733309,-107.5886713,75,peak,3882
Whitehead Peak,37.7599976,-107.6067272,75,peak,4045
Sheep Mountain,37.7833312,-107.5178367,76,peak,4051
Greenhalgh Mountain,37.784998,-107.5045031,76,peak,4027
Carson Peak,37.8574978,-107.4020013,66,peak,4164
Bent Peak,37.8606767,-107.3805617,66,peak,3974
Pole Creek Mountain,37.7958316,-107.4311685,76,peak,4174
Finger Mesa,37.7825864,-107.3218817,76,peak,3749
Hermosa Peak,37.709718,-107.9284022,74,peak,3816
Blackhawk Mountain,37.6852733,-107.9875708,71,peak,3855
Whitecap Mountain,37.67444,-107.9942378,71,peak,3770
Section Point,37.7030512,-107.9578476,74,peak,3635
Jura Knob,37.7372187,-107.8020093,74,peak,3846
Grayrock Peak,37.6738857,-107.8628448,74,peak,3811
Engineer Mountain,37.6991637,-107.8070097,74,peak,3940
Coal Bank Hill,37.6902751,-107.776731,74,peak,3222
Potato Hill,37.6724977,-107.7667307,74,peak,3612
North Twilight Peak,37.6691647,-107.7281186,74,peak,3982
Snowdon Peak,37.7077755,-107.688951,74,peak,3985
Mount Garfield,37.6947204,-107.6364499,75,peak,3983
Point Pun,37.6869427,-107.6303387,75,peak,3998
Twilight Peak,37.6630537,-107.7270075,74,peak,4007
South Twilight Peak,37.6591648,-107.7236741,74,peak,3992
West Needle Mountain,37.6494427,-107.7217296,74,peak,3981
Needle Mountains Peak Fourteen,37.6524986,-107.655617,75,peak,3797
Needle Mountains Peak Fifteen,37.6286101,-107.6361721,75,peak,4157
Needle Mountains Peak Sixteen,37.628888,-107.6281163,75,peak,4048
The Index,37.6441655,-107.6331165,75,peak,4081
Animas Mountain,37.6433322,-107.629227,75,peak,4191
Pigeon Peak,37.6324989,-107.6461723,75,peak,4247
Turret Peak,37.627499,-107.6397833,75,peak,4211
Little Finger,37.6283323,-107.6322831,75,peak,4032
Needle Mountains Peak One,37.6974987,-107.5572817,751,peak,4138
Needle Mountains Peak Two,37.708054,-107.5739487,75,peak,4058
Needle Mountains Peak Three,37.6963874,-107.5775598,75,peak,4095
Needle Mountains Peak Four,37.6599988,-107.6075603,75,peak,4089
Needle Mountains Peak Five,37.6569433,-107.5967267,75,peak,4026
Needle Mountains Peak Six,37.6602767,-107.5850598,751,peak,4172
Needle Mountains Peak Seven,37.6677767,-107.5739485,75,peak,4158
Needle Mountains Peak Eight,37.67111,-107.5670039,751,peak,4022
Needle Mountains Peak Nine,37.6697212,-107.5600593,751,peak,4085
Needle Mountains Peak Ten,37.6433323,-107.6056158,75,peak,3545
Needle Mountains Peak Eleven,37.6286103,-107.6058936,75,peak,4116
Needle Mountains Peak Thirteen,37.6405545,-107.624783,75,peak,4161
Electric Peak,37.6988872,-107.6172829,75,peak,4049
Graystone Peak,37.6894428,-107.6195051,75,peak,4109
Arrow Peak,37.6927762,-107.6100605,75,peak,4204
Vestal Peak,37.6894429,-107.6025603,75,peak,4201
White Dome,37.7041654,-107.5464481,75,peak,4155
Trinity Peaks,37.6849987,-107.581171,75,peak,4210
Storm King Peak,37.6766656,-107.5595038,751,peak,4187
Mount Silex,37.6702768,-107.5481146,751,peak,4151
Hunchback Mountain,37.7052765,-107.5314478,751,peak,4001
Mount Nebo,37.6761103,-107.5083916,751,peak,4018
The Heisspitz,37.6644431,-107.6222829,75,peak,4037
Gray Needle,37.646388,-107.5892265,75,peak,4063
Jagged Mountain,37.6455547,-107.5839486,751,peak,4213
Monitor Peak,37.6377768,-107.6247829,75,peak,4142
Knife Point,37.638888,-107.5947822,75,peak,4036
Glacier Point,37.6261103,-107.6142271,75,peak,4162
Twin Thumbs,37.6283325,-107.6089491,75,peak,4032
Sunlight Peak,37.6274221,-107.5958515,75,peak,4287
Leviathan Peak,37.6530547,-107.574504,751,peak,4117
Vallecito Mountain,37.650277,-107.5661705,751,peak,4089
The Guardian,37.6636103,-107.5403366,751,peak,4151
Timber Hill,37.7474987,-107.4500576,76,peak,3293
Rio Grande Pyramid,37.6797219,-107.3925559,76,peak,4204
Simpson Mountain,37.7061107,-107.3514443,76,peak,3932
River Hill,37.7384662,-107.2128506,76,peak,2926
Chief Mountain,37.6366679,-107.2089402,76,peak,3952
Antelope Mountain,37.7486121,-107.0503263,76,peak,3097
Hogback Mountain,37.7336126,-107.0217142,76,peak,2832
Baldy Mountain,37.6886126,-107.1117161,76,peak,3807
Castle Rock,37.6008312,-107.830622,74,peak,3169
Tank Mesa,37.5724993,-107.7075627,75,peak,3611
Stag Mesa,37.5699995,-107.6897845,75,peak,3713
Lime Mesa,37.5597219,-107.6758953,75,peak,3686
Mount Kennedy,37.5891871,-107.6270817,75,peak,3962
Mount Eolus,37.6217842,-107.622655,75,peak,4295
Windom Peak,37.6213097,-107.5918424,75,peak,4296
Jupiter Mountain,37.6124995,-107.5920043,751,peak,4212
Hope Mountain,37.599444,-107.5911709,751,peak,3953
Aztec Mountain,37.5916663,-107.6158937,75,peak,4057
Bullion Mountain,37.5847219,-107.6042267,75,peak,4009
Florida Mountain,37.582222,-107.5939486,751,peak,3967
Mount Valois,37.5741667,-107.5847818,75,peak,4017
Silver Mesa,37.582222,-107.6011711,751,peak,3981
Greylock Mountain,37.6177773,-107.5700593,751,peak,4134
Grizzly Peak,37.6074996,-107.582004,751,peak,4158
Thunder Mountain,37.6047219,-107.5606146,751,peak,3992
McCauley Peak,37.5974997,-107.578115,751,peak,4116
Echo Mountain,37.5913887,-107.5717259,751,peak,4051
Irving Peak,37.5950001,-107.5095021,751,peak,4024
Sheep Mountain,37.5461245,-102.5574154,139,peak,1302
Emerson Mountain,37.5572225,-107.5650589,751,peak,3968
Amherst Mountain,37.565278,-107.5595032,751,peak,4013
Organ Mountain,37.567778,-107.5536698,751,peak,3970
Sheridan Mountain,37.5358337,-107.5847816,75,peak,3885
Table Mountain,37.5472229,-107.4945014,751,peak,3565
Mount Oso,37.6072222,-107.4936685,751,peak,4158
Peters Peak,37.6158333,-107.485335,751,peak,3994
Buffalo Peak,37.6227777,-107.4845017,751,peak,3861
Mesa Lato,37.6091671,-107.4011665,751,peak,3860
Granite Peak,37.6044451,-107.3414428,77,peak,3254
Bald Mountain,37.551668,-107.3347754,751,peak,3733
Flag Mountain,37.5419457,-107.3675538,751,peak,3752
Unnamed,37.5897972,-107.216272,77,peak,3821
Piedra Peak,37.5752824,-107.0189344,76,peak,3757
Palomino Mountain,37.5602823,-107.045046,77,peak,3724
Toner Mountain,37.5077822,-107.1103248,77,peak,3808
Sugarloaf Mountain,37.52556,-107.0917134,77,peak,3817
Red Mountain,37.5200057,-107.0156004,78,peak,3835
Beaver Hill,38.4033206,-107.9495097,62,peak,2030
Sims Mesa,38.3822097,-107.8789516,62,peak,1989
Waterdog Peak,38.387488,-107.6742252,65,peak,2865
Hairpin Hill,38.4394315,-107.695058,65,peak,2541
Coal Hill,38.4199878,-107.6361696,65,peak,2692
Sheep Knob,38.4591544,-107.5828361,64,peak,2903
McKenzie Butte,38.2586,-107.789782,62,peak,2442
Storm King,38.3152671,-107.6372811,65,peak,3456
Horse Mesa,38.3086016,-107.5247816,65,peak,2966
Horse Mesa,38.314436,-107.435892,65,peak,3079
High Mesa,38.2122145,-107.4953374,65,peak,3515
Cap Mountain,38.2776233,-107.1523938,66,peak,2753
Tolvar Peak,38.3119384,-107.1400521,66,peak,2892
Iron Hill,38.2533277,-107.0533826,67,peak,2820
Huntsman Mesa,38.2793648,-107.0201435,67,peak,3074
Ninemile Hill,38.3591598,-107.083383,67,peak,2746
Spruce Mountain,38.1705456,-107.9131198,62,peak,3009
Horsefly Peak,38.1936007,-107.9314536,62,peak,3144
Flat Top,38.1833231,-107.9392317,62,peak,3096
Round Top,38.1630461,-107.7725598,62,peak,2244
Burnt Mill Mesa,38.2161005,-107.8478397,62,peak,2546
Onion Hill,38.1983242,-107.651448,65,peak,2476
Sneva Mountain,38.1297147,-107.6156149,65,peak,2762
Stealey Mountain,38.1505478,-107.6033927,65,peak,3119
Courthouse Mountain,38.1350995,-107.5749479,65,peak,3695
Dunsinane,38.1299932,-107.5395038,65,peak,3867
Sheep Mountain,38.1588824,-107.4658923,65,peak,4016
Alpine Point,38.220103,-107.3480481,66,peak,3509
Baldy,38.2477716,-107.3483914,66,peak,3387
Miller Hill,38.205828,-107.0347708,67,peak,3003
Polepatch Hill,38.190828,-107.0061586,67,peak,3161
Rudolph Hill,38.2228126,-107.0442504,67,peak,3087
Hayden Peak,38.0305479,-107.9095091,70,peak,3946
North Pole Peak,38.0386032,-107.9153425,70,peak,3694
West Baldy,38.1177687,-107.9003418,62,peak,2981
Mount Ridgway,38.0136043,-107.7531161,65,peak,4104
Teakettle Mountain,38.0008267,-107.7617275,65,peak,4172
South Baldy,38.0788807,-107.8331178,65,peak,2993
Mears Peak,38.0091595,-107.8617301,70,peak,4097
Wolcott Mountain,38.0161038,-107.8472853,65,peak,3971
Cirque Mountain,38.0038822,-107.7717278,65,peak,4175
Twin Peaks,38.0282361,-107.6923067,65,peak,3314
Sister Peak,38.0283268,-107.6883933,65,peak,3134
Cascade Mountain,38.0379033,-107.6413781,65,peak,3548
Whitehouse Mountain,38.0205488,-107.7378381,65,peak,4118
Baldy Peak,38.11027,-107.6811707,65,peak,3223
Wildhorse Peak,38.0133281,-107.5775592,65,peak,4037
Blackwall Mountain,38.0288836,-107.5647815,65,peak,3981
Wetterhorn Peak,38.0607958,-107.5110101,65,peak,4274
Coxcomb Peak,38.0799941,-107.5333925,65,peak,4149
Redcliff,38.0872162,-107.5331147,65,peak,4154
Precipice Peak,38.1193978,-107.5352152,65,peak,3845
Broken Hill,38.0427731,-107.4717251,66,peak,4028
Matterhorn Peak,38.06533,-107.4959827,65,peak,4119
Uncompahgre Peak,38.0717523,-107.4625069,66,peak,4365
Silver Mountain,38.1069389,-107.4495029,66,peak,4176
Crystal Peak,38.0536071,-107.3739458,66,peak,3939
Neoga Mountain,38.0333298,-107.3422785,66,peak,3323
Station Eleven,38.024997,-107.2967221,66,peak,3270
Mineral Mountain,38.0238849,-107.0058807,66,peak,3687
Crested Butte,38.883325,-106.943655,55,peak,3704
Teocalli Mountain,38.9602693,-106.8839301,55,peak,4013
White Rock Mountain,38.9805468,-106.9275429,55,peak,4110
Avery Peak,38.9855466,-106.9769893,55,peak,3854
Snodgrass Mountain,38.9333249,-106.9900454,55,peak,3396
Pearl Mountain,38.9811025,-106.8344839,471,peak,4056
Carbonate Hill,38.9658249,-106.8253167,55,peak,3867
Star Peak,38.9794359,-106.7997603,471,peak,4112
Taylor Peak,38.9919358,-106.7825374,471,peak,4090
Crystal Peak,38.9647692,-106.7915786,55,peak,3654
Mount Tilton,38.9711027,-106.7644811,55,peak,3828
Timbered Hill,38.9544361,-106.8258723,55,peak,3773
Hunters Hill,38.9461042,-104.7877543,110,peak,2006
Italian Mountain,38.9455475,-106.752536,55,peak,4023
American Flag Mountain,38.9327699,-106.7180904,55,peak,3875
Forest Hill,38.8963815,-106.6786446,55,peak,3795
Jenkins Mountain,38.9652706,-106.5433628,55,peak,4081
Grizzly Peak,38.9424931,-106.5219732,55,peak,4050
Red Mountain,38.7683268,-106.9269873,54,peak,3544
Whetstone Mountain,38.8222152,-106.9800451,54,peak,3807
Strand Hill,38.8724924,-106.8775407,55,peak,3123
Round Mountain,38.7799933,-106.8533729,55,peak,3317
East Cement Mountain,38.7899931,-106.7905923,55,peak,3664
Cement Mountain,38.8072152,-106.813649,55,peak,3721
Point Lookout,38.8511037,-106.850873,55,peak,3422
Paint Mountain,38.7655491,-106.6972555,55,peak,3111
Baldy Mountain,38.7911046,-106.6558656,55,peak,3545
South Matchless Mountain,38.8169377,-106.6614214,55,peak,3717
Rocky Point,38.8630487,-106.6364209,55,peak,3589
Matchless Mountain,38.83416,-106.6450321,55,peak,3777
Boston Peak,38.851937,-106.7444796,55,peak,3567
Manganese Peak,38.7827709,-106.7436459,55,peak,3406
Park Cone,38.7966605,-106.6030863,55,peak,3683
Henry Mountain,38.6855494,-106.6211427,55,peak,4042
Broncho Mountain,38.6855496,-106.5894751,55,peak,3904
Square Top Mountain,38.6794383,-106.6111425,55,peak,3954
Fossil Mountain,38.6707315,-106.6059998,55,peak,3885
Sheep Mountain,38.6569383,-106.5961422,55,peak,3739
Terrible Mountain,38.6665011,-106.5379969,55,peak,3594
Green Mountain,38.6777725,-106.5075284,55,peak,3873
Fairview Peak,38.6833277,-106.5366959,55,peak,4029
Cameron Mountain,38.711393,-106.5685239,55,peak,3597
Cross Mountain,38.7258275,-106.5872526,55,peak,3798
Signal Peak,38.5783019,-106.8632578,55,peak,2744
Indian Head,38.541104,-106.6503111,55,peak,2577
Lookout Mountain,38.5463829,-106.5608642,551,peak,3383
Islet Mountain,38.6238831,-106.5528078,55,peak,3349
West Mountain,38.6124943,-106.5433632,55,peak,3235
Quartz Dome,38.597494,-106.5686418,55,peak,3444
Copper Mountain,38.5708278,-106.5186406,551,peak,3188
Ice Mountain,38.9144382,-106.4372486,55,peak,4220
Mount Kreutzer,38.7611064,-106.4172479,55,peak,3867
Jones Mountain,38.773229,-106.3939626,481,peak,3994
